[
  {
    "name": "Afghanistan",
    "timezone": "Asia/Kabul",
    "code": "AF",
    "latitude": 33,
    "longitude": 65,
    "cities": [
      {
        "name": "Kabul",
        "timezone": "Asia/Kabul",
        "latitude": 34.5167,
        "longitude": 69.1833
      },
      {
        "name": "Sharan",
        "timezone": "Asia/Kabul",
        "latitude": 33.1757,
        "longitude": 68.7304
      },
      {
        "name": "Zaranj",
        "timezone": "Asia/Kabul",
        "latitude": 31.112,
        "longitude": 61.887
      },
      {
        "name": "Lashkar Gah",
        "timezone": "Asia/Kabul",
        "latitude": 31.583,
        "longitude": 64.36
      },
      {
        "name": "Kandahar",
        "timezone": "Asia/Kabul",
        "latitude": 31.61,
        "longitude": 65.6949
      },
      {
        "name": "Tarin Kowt",
        "timezone": "Asia/Kabul",
        "latitude": 32.6333,
        "longitude": 65.8667
      },
      {
        "name": "Herat",
        "timezone": "Asia/Kabul",
        "latitude": 34.33,
        "longitude": 62.17
      },
      {
        "name": "Ghazni",
        "timezone": "Asia/Kabul",
        "latitude": 33.5633,
        "longitude": 68.4178
      },
      {
        "name": "Maidan Shahr",
        "timezone": "Asia/Kabul",
        "latitude": 34.3956,
        "longitude": 68.8662
      },
      {
        "name": "Andkhvoy",
        "timezone": "Asia/Kabul",
        "latitude": 36.9317,
        "longitude": 65.1015
      },
      {
        "name": "Pol-e Khomri",
        "timezone": "Asia/Kabul",
        "latitude": 35.9511,
        "longitude": 68.7011
      },
      {
        "name": "Mazar-e Sharif",
        "timezone": "Asia/Kabul",
        "latitude": 36.7,
        "longitude": 67.1
      },
      {
        "name": "Sar-e Pul",
        "timezone": "Asia/Kabul",
        "latitude": 36.2154,
        "longitude": 65.9325
      },
      {
        "name": "Meymaneh",
        "timezone": "Asia/Kabul",
        "latitude": 35.9302,
        "longitude": 64.7701
      },
      {
        "name": "Gardiz",
        "timezone": "Asia/Kabul",
        "latitude": 33.6001,
        "longitude": 69.2146
      },
      {
        "name": "Asadabad",
        "timezone": "Asia/Kabul",
        "latitude": 34.866,
        "longitude": 71.15
      },
      {
        "name": "Jalalabad",
        "timezone": "Asia/Kabul",
        "latitude": 34.4415,
        "longitude": 70.4361
      },
      {
        "name": "Zareh Sharan",
        "timezone": "Asia/Kabul",
        "latitude": 32.85,
        "longitude": 68.4167
      },
      {
        "name": "Mehtar Lam",
        "timezone": "Asia/Kabul",
        "latitude": 34.65,
        "longitude": 70.1667
      },
      {
        "name": "Aybak",
        "timezone": "Asia/Kabul",
        "latitude": 36.261,
        "longitude": 68.04
      },
      {
        "name": "Sheberghan",
        "timezone": "Asia/Kabul",
        "latitude": 36.658,
        "longitude": 65.7383
      },
      {
        "name": "Khost",
        "timezone": "Asia/Kabul",
        "latitude": 33.3395,
        "longitude": 69.9204
      },
      {
        "name": "Farah",
        "timezone": "Asia/Kabul",
        "latitude": 32.3917,
        "longitude": 62.0968
      },
      {
        "name": "Mahmud-E Eraqi",
        "timezone": "Asia/Kabul",
        "latitude": 35.0167,
        "longitude": 69.3333
      },
      {
        "name": "Qala i Naw",
        "timezone": "Asia/Kabul",
        "latitude": 34.983,
        "longitude": 63.1333
      },
      {
        "name": "Feyzabad",
        "timezone": "Asia/Kabul",
        "latitude": 37.1298,
        "longitude": 70.5792
      },
      {
        "name": "Charikar",
        "timezone": "Asia/Kabul",
        "latitude": 35.0183,
        "longitude": 69.1679
      },
      {
        "name": "Nili",
        "timezone": "Asia/Kabul",
        "latitude": 33.7218,
        "longitude": 66.1302
      },
      {
        "name": "Bazarak",
        "timezone": "Asia/Kabul",
        "latitude": 35.3129,
        "longitude": 69.5152
      },
      {
        "name": "Kondoz",
        "timezone": "Asia/Kabul",
        "latitude": 36.728,
        "longitude": 68.8725
      },
      {
        "name": "Qalat",
        "timezone": "Asia/Kabul",
        "latitude": 32.1123,
        "longitude": 66.8868
      },
      {
        "name": "Taloqan",
        "timezone": "Asia/Kabul",
        "latitude": 36.73,
        "longitude": 69.54
      },
      {
        "name": "Mayda Shahr",
        "timezone": "Asia/Kabul",
        "latitude": 34.45,
        "longitude": 68.8
      },
      {
        "name": "Balkh",
        "timezone": "Asia/Kabul",
        "latitude": 36.7501,
        "longitude": 66.8997
      },
      {
        "name": "Baghlan",
        "timezone": "Asia/Kabul",
        "latitude": 36.1393,
        "longitude": 68.6993
      },
      {
        "name": "Bamian",
        "timezone": "Asia/Kabul",
        "latitude": 34.8211,
        "longitude": 67.521
      },
      {
        "name": "Karokh",
        "timezone": "Asia/Kabul",
        "latitude": 34.4868,
        "longitude": 62.5918
      },
      {
        "name": "Baraki Barak",
        "timezone": "Asia/Kabul",
        "latitude": 33.9667,
        "longitude": 68.9667
      },
      {
        "name": "Pul-e `Alam",
        "timezone": "Asia/Kabul",
        "latitude": 33.9953,
        "longitude": 69.0227
      },
      {
        "name": "Parun",
        "timezone": "Asia/Kabul",
        "latitude": 35.4206,
        "longitude": 70.9226
      },
      {
        "name": "Chaghcharan",
        "timezone": "Asia/Kabul",
        "latitude": 34.5167,
        "longitude": 65.25
      }
    ]
  },
  {
    "name": "Ã…land Islands",
    "timezone": "Europe/Mariehamn",
    "code": "AX",
    "latitude": 60.116667,
    "longitude": 19.9,
    "cities": []
  },
  {
    "name": "Albania",
    "timezone": "Europe/Tirane",
    "code": "AL",
    "latitude": 41,
    "longitude": 20,
    "cities": [
      {
        "name": "Berat",
        "timezone": "Europe/Tirane",
        "latitude": 40.71,
        "longitude": 19.972
      },
      {
        "name": "Korce",
        "timezone": "Europe/Tirane",
        "latitude": 40.6167,
        "longitude": 20.7667
      },
      {
        "name": "Librazhd",
        "timezone": "Europe/Tirane",
        "latitude": 41.2,
        "longitude": 20.3667
      },
      {
        "name": "Gjirokaster",
        "timezone": "Europe/Athens",
        "latitude": 40.079,
        "longitude": 20.149
      },
      {
        "name": "Puke",
        "timezone": "Europe/Tirane",
        "latitude": 42.0333,
        "longitude": 19.8833
      },
      {
        "name": "Kruje",
        "timezone": "Europe/Tirane",
        "latitude": 41.519,
        "longitude": 19.797
      },
      {
        "name": "Tepelene",
        "timezone": "Europe/Athens",
        "latitude": 40.2833,
        "longitude": 20.0333
      },
      {
        "name": "Rreshen",
        "timezone": "Europe/Tirane",
        "latitude": 41.7833,
        "longitude": 19.8167
      },
      {
        "name": "Corovode",
        "timezone": "Europe/Tirane",
        "latitude": 40.5167,
        "longitude": 20.2333
      },
      {
        "name": "Shkoder",
        "timezone": "Europe/Tirane",
        "latitude": 42.0685,
        "longitude": 19.5188
      },
      {
        "name": "Lushnje",
        "timezone": "Europe/Tirane",
        "latitude": 40.94,
        "longitude": 19.716
      },
      {
        "name": "Erseke",
        "timezone": "Europe/Tirane",
        "latitude": 40.3333,
        "longitude": 20.6833
      },
      {
        "name": "Bajram Curri",
        "timezone": "Europe/Tirane",
        "latitude": 42.3333,
        "longitude": 20.0833
      },
      {
        "name": "Durres",
        "timezone": "Europe/Tirane",
        "latitude": 41.3178,
        "longitude": 19.4482
      },
      {
        "name": "Burrel",
        "timezone": "Europe/Tirane",
        "latitude": 41.626,
        "longitude": 20.016
      },
      {
        "name": "Kukes",
        "timezone": "Europe/Tirane",
        "latitude": 42.083,
        "longitude": 20.434
      },
      {
        "name": "Gramsh",
        "timezone": "Europe/Tirane",
        "latitude": 40.8667,
        "longitude": 20.2
      },
      {
        "name": "Lezhe",
        "timezone": "Europe/Tirane",
        "latitude": 41.788,
        "longitude": 19.654
      },
      {
        "name": "Sarande",
        "timezone": "Europe/Athens",
        "latitude": 39.877,
        "longitude": 20
      },
      {
        "name": "Permet",
        "timezone": "Europe/Athens",
        "latitude": 40.234,
        "longitude": 20.352
      },
      {
        "name": "Pogradec",
        "timezone": "Europe/Tirane",
        "latitude": 40.9,
        "longitude": 20.664
      },
      {
        "name": "Elbasan",
        "timezone": "Europe/Tirane",
        "latitude": 41.1215,
        "longitude": 20.0838
      },
      {
        "name": "Peshkopi",
        "timezone": "Europe/Tirane",
        "latitude": 41.6833,
        "longitude": 20.4333
      },
      {
        "name": "Fier",
        "timezone": "Europe/Tirane",
        "latitude": 40.73,
        "longitude": 19.573
      },
      {
        "name": "Tirana",
        "timezone": "Europe/Tirane",
        "latitude": 41.3275,
        "longitude": 19.8189
      },
      {
        "name": "Vlore",
        "timezone": "Europe/Tirane",
        "latitude": 40.4774,
        "longitude": 19.4982
      }
    ]
  },
  {
    "name": "Algeria",
    "timezone": "Africa/Algiers",
    "code": "DZ",
    "latitude": 28,
    "longitude": 3,
    "cities": [
      {
        "name": "Beni Ounif",
        "timezone": "Africa/Casablanca",
        "latitude": 32.0493,
        "longitude": -1.2514
      },
      {
        "name": "Algiers",
        "timezone": "Africa/Algiers",
        "latitude": 36.7631,
        "longitude": 3.0506
      },
      {
        "name": "Hassi Messaoud",
        "timezone": "Africa/Algiers",
        "latitude": 31.7023,
        "longitude": 6.0545
      },
      {
        "name": "Touggourt",
        "timezone": "Africa/Algiers",
        "latitude": 33.1,
        "longitude": 6.06
      },
      {
        "name": "Djanet",
        "timezone": "Africa/Tripoli",
        "latitude": 24.5529,
        "longitude": 9.4823
      },
      {
        "name": "I-n-Amenas",
        "timezone": "Africa/Tripoli",
        "latitude": 28.0503,
        "longitude": 9.55
      },
      {
        "name": "El Golea",
        "timezone": "Africa/Algiers",
        "latitude": 30.5666,
        "longitude": 2.8833
      },
      {
        "name": "In Amguel",
        "timezone": "Africa/Algiers",
        "latitude": 23.6939,
        "longitude": 5.1647
      },
      {
        "name": "Reggane",
        "timezone": "Africa/Algiers",
        "latitude": 26.7,
        "longitude": 0.1666
      },
      {
        "name": "I-n-Salah",
        "timezone": "Africa/Algiers",
        "latitude": 27.2166,
        "longitude": 2.4666
      },
      {
        "name": "Timimoun",
        "timezone": "Africa/Algiers",
        "latitude": 29.2365,
        "longitude": 0.27
      },
      {
        "name": "Sefra",
        "timezone": "Africa/Algiers",
        "latitude": 32.7604,
        "longitude": -0.5799
      },
      {
        "name": "Abadla",
        "timezone": "Africa/Algiers",
        "latitude": 31.0171,
        "longitude": -2.7333
      },
      {
        "name": "Oum el Bouaghi",
        "timezone": "Africa/Algiers",
        "latitude": 35.85,
        "longitude": 7.15
      },
      {
        "name": "Souk Ahras",
        "timezone": "Africa/Algiers",
        "latitude": 36.2904,
        "longitude": 7.95
      },
      {
        "name": "Illizi",
        "timezone": "Africa/Algiers",
        "latitude": 26.4834,
        "longitude": 8.4666
      },
      {
        "name": "Tissemsilt",
        "timezone": "Africa/Algiers",
        "latitude": 35.6072,
        "longitude": 1.8108
      },
      {
        "name": "Tindouf",
        "timezone": "Africa/Algiers",
        "latitude": 27.6742,
        "longitude": -8.1478
      },
      {
        "name": "Tamanrasset",
        "timezone": "Africa/Algiers",
        "latitude": 22.785,
        "longitude": 5.5228
      },
      {
        "name": "Ouargla",
        "timezone": "Africa/Algiers",
        "latitude": 31.97,
        "longitude": 5.34
      },
      {
        "name": "M'sila",
        "timezone": "Africa/Algiers",
        "latitude": 35.7,
        "longitude": 4.545
      },
      {
        "name": "Guelma",
        "timezone": "Africa/Algiers",
        "latitude": 36.466,
        "longitude": 7.428
      },
      {
        "name": "El Oued",
        "timezone": "Africa/Algiers",
        "latitude": 33.3704,
        "longitude": 6.86
      },
      {
        "name": "Bordj Bou Arreridj",
        "timezone": "Africa/Algiers",
        "latitude": 36.059,
        "longitude": 4.63
      },
      {
        "name": "Annaba",
        "timezone": "Africa/Algiers",
        "latitude": 36.92,
        "longitude": 7.76
      },
      {
        "name": "Ain Temouchent",
        "timezone": "Africa/Algiers",
        "latitude": 35.2975,
        "longitude": -1.1404
      },
      {
        "name": "Ain Defla",
        "timezone": "Africa/Algiers",
        "latitude": 36.2641,
        "longitude": 1.9679
      },
      {
        "name": "Adrar",
        "timezone": "Africa/Algiers",
        "latitude": 27.87,
        "longitude": -0.29
      },
      {
        "name": "Batna",
        "timezone": "Africa/Algiers",
        "latitude": 35.57,
        "longitude": 6.17
      },
      {
        "name": "Bechar",
        "timezone": "Africa/Algiers",
        "latitude": 31.6111,
        "longitude": -2.23
      },
      {
        "name": "Bejaia",
        "timezone": "Africa/Algiers",
        "latitude": 36.7604,
        "longitude": 5.07
      },
      {
        "name": "Biskra",
        "timezone": "Africa/Algiers",
        "latitude": 34.86,
        "longitude": 5.73
      },
      {
        "name": "Blida",
        "timezone": "Africa/Algiers",
        "latitude": 36.4203,
        "longitude": 2.83
      },
      {
        "name": "Bouira",
        "timezone": "Africa/Algiers",
        "latitude": 36.3805,
        "longitude": 3.9
      },
      {
        "name": "Boumerdes",
        "timezone": "Africa/Algiers",
        "latitude": 36.759,
        "longitude": 3.4748
      },
      {
        "name": "Chlef",
        "timezone": "Africa/Algiers",
        "latitude": 36.1704,
        "longitude": 1.32
      },
      {
        "name": "Constantine",
        "timezone": "Africa/Algiers",
        "latitude": 36.36,
        "longitude": 6.5999
      },
      {
        "name": "Djelfa",
        "timezone": "Africa/Algiers",
        "latitude": 34.68,
        "longitude": 3.25
      },
      {
        "name": "El Bayadh",
        "timezone": "Africa/Algiers",
        "latitude": 33.6904,
        "longitude": 1.01
      },
      {
        "name": "El Tarf",
        "timezone": "Africa/Algiers",
        "latitude": 36.7672,
        "longitude": 8.3138
      },
      {
        "name": "Ghardaia",
        "timezone": "Africa/Algiers",
        "latitude": 32.49,
        "longitude": 3.67
      },
      {
        "name": "Jijel",
        "timezone": "Africa/Algiers",
        "latitude": 36.822,
        "longitude": 5.766
      },
      {
        "name": "Khenchela",
        "timezone": "Africa/Algiers",
        "latitude": 35.4358,
        "longitude": 7.1433
      },
      {
        "name": "Laghouat",
        "timezone": "Africa/Algiers",
        "latitude": 33.81,
        "longitude": 2.88
      },
      {
        "name": "Mascara",
        "timezone": "Africa/Algiers",
        "latitude": 35.4004,
        "longitude": 0.14
      },
      {
        "name": "Medea",
        "timezone": "Africa/Algiers",
        "latitude": 36.2704,
        "longitude": 2.77
      },
      {
        "name": "Mila",
        "timezone": "Africa/Algiers",
        "latitude": 36.4503,
        "longitude": 6.2644
      },
      {
        "name": "Mostaganem",
        "timezone": "Africa/Algiers",
        "latitude": 35.9404,
        "longitude": 0.09
      },
      {
        "name": "Naama",
        "timezone": "Africa/Algiers",
        "latitude": 33.2667,
        "longitude": -0.3167
      },
      {
        "name": "Oran",
        "timezone": "Africa/Algiers",
        "latitude": 35.71,
        "longitude": -0.62
      },
      {
        "name": "Relizane",
        "timezone": "Africa/Algiers",
        "latitude": 35.7373,
        "longitude": 0.556
      },
      {
        "name": "Saida",
        "timezone": "Africa/Algiers",
        "latitude": 34.8404,
        "longitude": 0.14
      },
      {
        "name": "Setif",
        "timezone": "Africa/Algiers",
        "latitude": 36.18,
        "longitude": 5.4
      },
      {
        "name": "Sidi bel Abbes",
        "timezone": "Africa/Algiers",
        "latitude": 35.1903,
        "longitude": -0.64
      },
      {
        "name": "Skikda",
        "timezone": "Africa/Algiers",
        "latitude": 36.8804,
        "longitude": 6.9
      },
      {
        "name": "Tebessa",
        "timezone": "Africa/Algiers",
        "latitude": 35.4104,
        "longitude": 8.12
      },
      {
        "name": "Tiarat",
        "timezone": "Africa/Algiers",
        "latitude": 35.3804,
        "longitude": 1.32
      },
      {
        "name": "Tipasa",
        "timezone": "Africa/Algiers",
        "latitude": 36.5897,
        "longitude": 2.4475
      },
      {
        "name": "Tizi-Ouzou",
        "timezone": "Africa/Algiers",
        "latitude": 36.8,
        "longitude": 4.0333
      },
      {
        "name": "Tlimcen",
        "timezone": "Africa/Algiers",
        "latitude": 34.8904,
        "longitude": -1.32
      }
    ]
  },
  {
    "name": "American Samoa",
    "timezone": "Pacific/Pago_Pago",
    "code": "AS",
    "latitude": -14.33333333,
    "longitude": -170,
    "cities": [
      {
        "name": "Pago Pago",
        "timezone": "Pacific/Apia",
        "latitude": -14.274,
        "longitude": -170.7046
      }
    ]
  },
  {
    "name": "Andorra",
    "timezone": "Europe/Andorra",
    "code": "AD",
    "latitude": 42.5,
    "longitude": 1.5,
    "cities": [
      {
        "name": "Ordino",
        "timezone": "Europe/Andorra",
        "latitude": 42.5563,
        "longitude": 1.5327
      },
      {
        "name": "La Massana",
        "timezone": "Europe/Andorra",
        "latitude": 42.5434,
        "longitude": 1.5148
      },
      {
        "name": "Canillo",
        "timezone": "Europe/Andorra",
        "latitude": 42.567,
        "longitude": 1.5981
      },
      {
        "name": "Andorra",
        "timezone": "Europe/Andorra",
        "latitude": 42.5,
        "longitude": 1.5165
      },
      {
        "name": "Encamp",
        "timezone": "Europe/Andorra",
        "latitude": 42.5361,
        "longitude": 1.5828
      },
      {
        "name": "Sant Julia de Loria",
        "timezone": "Europe/Andorra",
        "latitude": 42.4664,
        "longitude": 1.4933
      },
      {
        "name": "Escaldes-Engordany",
        "timezone": "Europe/Andorra",
        "latitude": 42.5085,
        "longitude": 1.5385
      }
    ]
  },
  {
    "name": "Angola",
    "timezone": "Africa/Luanda",
    "code": "AO",
    "latitude": -12.5,
    "longitude": 18.5,
    "cities": [
      {
        "name": "Luiana",
        "timezone": "Africa/Gaborone",
        "latitude": -17.3695,
        "longitude": 23
      },
      {
        "name": "Mavinga",
        "timezone": "Africa/Luanda",
        "latitude": -15.7895,
        "longitude": 20.36
      },
      {
        "name": "Benguela",
        "timezone": "Africa/Luanda",
        "latitude": -12.5783,
        "longitude": 13.4072
      },
      {
        "name": "Cangamba",
        "timezone": "Africa/Luanda",
        "latitude": -13.6996,
        "longitude": 19.86
      },
      {
        "name": "Cabinda",
        "timezone": "Africa/Luanda",
        "latitude": -5.5596,
        "longitude": 12.19
      },
      {
        "name": "Xangongo",
        "timezone": "Africa/Luanda",
        "latitude": -16.74,
        "longitude": 14.97
      },
      {
        "name": "Lubango",
        "timezone": "Africa/Luanda",
        "latitude": -14.9167,
        "longitude": 13.5
      },
      {
        "name": "Huambo",
        "timezone": "Africa/Luanda",
        "latitude": -12.75,
        "longitude": 15.76
      },
      {
        "name": "Chitado",
        "timezone": "Africa/Windhoek",
        "latitude": -17.3196,
        "longitude": 13.92
      },
      {
        "name": "Luena",
        "timezone": "Africa/Luanda",
        "latitude": -11.79,
        "longitude": 19.9
      },
      {
        "name": "Mucusso",
        "timezone": "Africa/Luanda",
        "latitude": -18.0195,
        "longitude": 21.43
      },
      {
        "name": "Ndalatando",
        "timezone": "Africa/Luanda",
        "latitude": -9.2995,
        "longitude": 14.91
      },
      {
        "name": "Ondjiva",
        "timezone": "Africa/Luanda",
        "latitude": -17.0696,
        "longitude": 15.73
      },
      {
        "name": "Mbanza-Congo",
        "timezone": "Africa/Luanda",
        "latitude": -6.2696,
        "longitude": 14.24
      },
      {
        "name": "Nzeto",
        "timezone": "Africa/Luanda",
        "latitude": -7.2296,
        "longitude": 12.86
      },
      {
        "name": "Capenda-Camulemba",
        "timezone": "Africa/Luanda",
        "latitude": -9.4196,
        "longitude": 18.43
      },
      {
        "name": "Calulo",
        "timezone": "Africa/Luanda",
        "latitude": -9.9996,
        "longitude": 14.9
      },
      {
        "name": "Calucinga",
        "timezone": "Africa/Luanda",
        "latitude": -11.3196,
        "longitude": 16.2
      },
      {
        "name": "Lubango",
        "timezone": "Africa/Luanda",
        "latitude": -14.91,
        "longitude": 13.49
      },
      {
        "name": "Songo",
        "timezone": "Africa/Luanda",
        "latitude": -7.3496,
        "longitude": 14.85
      },
      {
        "name": "Camabatela",
        "timezone": "Africa/Luanda",
        "latitude": -8.1896,
        "longitude": 15.37
      },
      {
        "name": "Cacolo",
        "timezone": "Africa/Luanda",
        "latitude": -10.1496,
        "longitude": 19.26
      },
      {
        "name": "Ambriz",
        "timezone": "Africa/Luanda",
        "latitude": -7.855,
        "longitude": 13.125
      },
      {
        "name": "Dondo",
        "timezone": "Africa/Luanda",
        "latitude": -9.69,
        "longitude": 14.43
      },
      {
        "name": "Saurimo",
        "timezone": "Africa/Luanda",
        "latitude": -9.6596,
        "longitude": 20.39
      },
      {
        "name": "Luanda",
        "timezone": "Africa/Luanda",
        "latitude": -8.8383,
        "longitude": 13.2344
      },
      {
        "name": "Waku Kungo",
        "timezone": "Africa/Luanda",
        "latitude": -11.3595,
        "longitude": 15.12
      },
      {
        "name": "Muconda",
        "timezone": "Africa/Luanda",
        "latitude": -10.5996,
        "longitude": 21.32
      },
      {
        "name": "Quipungo",
        "timezone": "Africa/Luanda",
        "latitude": -14.8295,
        "longitude": 14.55
      },
      {
        "name": "Uige",
        "timezone": "Africa/Luanda",
        "latitude": -7.62,
        "longitude": 15.05
      },
      {
        "name": "Quibala",
        "timezone": "Africa/Luanda",
        "latitude": -10.7296,
        "longitude": 14.98
      },
      {
        "name": "Menongue",
        "timezone": "Africa/Luanda",
        "latitude": -14.6666,
        "longitude": 17.7
      },
      {
        "name": "Sumbe",
        "timezone": "Africa/Luanda",
        "latitude": -11.21,
        "longitude": 13.85
      },
      {
        "name": "Luau",
        "timezone": "Africa/Luanda",
        "latitude": -10.7095,
        "longitude": 22.23
      },
      {
        "name": "Caxito",
        "timezone": "Africa/Luanda",
        "latitude": -8.5795,
        "longitude": 13.66
      },
      {
        "name": "Cazombo",
        "timezone": "Africa/Luanda",
        "latitude": -11.8896,
        "longitude": 22.9
      },
      {
        "name": "Malanje",
        "timezone": "Africa/Luanda",
        "latitude": -9.54,
        "longitude": 16.34
      },
      {
        "name": "Lobito",
        "timezone": "Africa/Luanda",
        "latitude": -12.37,
        "longitude": 13.5412
      },
      {
        "name": "Soyo",
        "timezone": "Africa/Luanda",
        "latitude": -6.1296,
        "longitude": 12.37
      },
      {
        "name": "Kuito",
        "timezone": "Africa/Luanda",
        "latitude": -12.38,
        "longitude": 16.94
      },
      {
        "name": "Cuito Caunavale",
        "timezone": "Africa/Luanda",
        "latitude": -15.1596,
        "longitude": 19.17
      },
      {
        "name": "Chibemba",
        "timezone": "Africa/Luanda",
        "latitude": -15.7496,
        "longitude": 14.08
      },
      {
        "name": "Chibia",
        "timezone": "Africa/Luanda",
        "latitude": -15.1896,
        "longitude": 13.69
      },
      {
        "name": "Camacupa",
        "timezone": "Africa/Luanda",
        "latitude": -12.0196,
        "longitude": 17.47
      },
      {
        "name": "Cubal",
        "timezone": "Africa/Luanda",
        "latitude": -13.0396,
        "longitude": 14.24
      },
      {
        "name": "Namibe",
        "timezone": "Africa/Luanda",
        "latitude": -15.19,
        "longitude": 12.16
      },
      {
        "name": "Tombua",
        "timezone": "Africa/Luanda",
        "latitude": -15.8,
        "longitude": 11.86
      },
      {
        "name": "Lucapa",
        "timezone": "Africa/Luanda",
        "latitude": -8.4196,
        "longitude": 20.74
      },
      {
        "name": "Dundo",
        "timezone": "Africa/Lubumbashi",
        "latitude": -7.38,
        "longitude": 20.83
      }
    ]
  },
  {
    "name": "Anguilla",
    "timezone": "America/Anguilla",
    "code": "AI",
    "latitude": 18.25,
    "longitude": -63.16666666,
    "cities": [
      {
        "name": "The Valley",
        "timezone": "America/Anguilla",
        "latitude": 18.2167,
        "longitude": -63.05
      }
    ]
  },
  {
    "name": "Antigua and Barbuda",
    "timezone": "America/Antigua",
    "code": "AG",
    "latitude": 17.05,
    "longitude": -61.8,
    "cities": []
  },
  {
    "name": "Argentina",
    "timezone": "America/Argentina/Cordoba",
    "code": "AR",
    "latitude": -34,
    "longitude": -64,
    "cities": [
      {
        "name": "San Juan",
        "timezone": "America/Argentina/San_Juan",
        "latitude": -31.55,
        "longitude": -68.52
      },
      {
        "name": "Los Blancos",
        "timezone": "America/Argentina/Salta",
        "latitude": -23.5996,
        "longitude": -62.6
      },
      {
        "name": "General Roca",
        "timezone": "America/Argentina/Salta",
        "latitude": -39.02,
        "longitude": -67.61
      },
      {
        "name": "Ushuaia",
        "timezone": "America/Punta_Arenas",
        "latitude": -54.79,
        "longitude": -68.31
      },
      {
        "name": "Santa Rosa",
        "timezone": "America/Argentina/Salta",
        "latitude": -36.62,
        "longitude": -64.3
      },
      {
        "name": "28 de Noviembre",
        "timezone": "America/Punta_Arenas",
        "latitude": -51.65,
        "longitude": -72.3
      },
      {
        "name": "Comondante Luis Piedrabuena",
        "timezone": "America/Argentina/Rio_Gallegos",
        "latitude": -49.9745,
        "longitude": -68.9035
      },
      {
        "name": "Rio Gallegos",
        "timezone": "America/Argentina/Rio_Gallegos",
        "latitude": -51.6333,
        "longitude": -69.2166
      },
      {
        "name": "Santa Fe",
        "timezone": "America/Argentina/Cordoba",
        "latitude": -31.6239,
        "longitude": -60.69
      },
      {
        "name": "Parana",
        "timezone": "America/Argentina/Cordoba",
        "latitude": -31.7333,
        "longitude": -60.5333
      },
      {
        "name": "San Lorenzo",
        "timezone": "America/Argentina/Cordoba",
        "latitude": -28.12,
        "longitude": -58.77
      },
      {
        "name": "Salta",
        "timezone": "America/Argentina/Salta",
        "latitude": -24.7834,
        "longitude": -65.4166
      },
      {
        "name": "Darregueira",
        "timezone": "America/Argentina/Buenos_Aires",
        "latitude": -37.6996,
        "longitude": -63.1666
      },
      {
        "name": "Trelew",
        "timezone": "America/Argentina/Catamarca",
        "latitude": -43.25,
        "longitude": -65.33
      },
      {
        "name": "Rawson",
        "timezone": "America/Argentina/Catamarca",
        "latitude": -43.3,
        "longitude": -65.1
      },
      {
        "name": "La Rioja",
        "timezone": "America/Argentina/La_Rioja",
        "latitude": -29.41,
        "longitude": -66.85
      },
      {
        "name": "Villalonga",
        "timezone": "America/Argentina/Buenos_Aires",
        "latitude": -39.8829,
        "longitude": -62.5833
      },
      {
        "name": "Viedma",
        "timezone": "America/Argentina/Salta",
        "latitude": -40.8,
        "longitude": -63
      },
      {
        "name": "Sunchales",
        "timezone": "America/Argentina/Cordoba",
        "latitude": -30.9329,
        "longitude": -61.5666
      },
      {
        "name": "Rio Colorado",
        "timezone": "America/Argentina/Salta",
        "latitude": -38.9666,
        "longitude": -64.0833
      },
      {
        "name": "Pedro Luro",
        "timezone": "America/Argentina/Buenos_Aires",
        "latitude": -39.4833,
        "longitude": -62.6833
      },
      {
        "name": "San Salvador de Jujuy",
        "timezone": "America/Argentina/Jujuy",
        "latitude": -24.1833,
        "longitude": -65.3
      },
      {
        "name": "Resistencia",
        "timezone": "America/Argentina/Cordoba",
        "latitude": -27.46,
        "longitude": -58.99
      },
      {
        "name": "Posadas",
        "timezone": "America/Argentina/Cordoba",
        "latitude": -27.3578,
        "longitude": -55.8851
      },
      {
        "name": "Paso Rio Mayo",
        "timezone": "America/Argentina/Catamarca",
        "latitude": -45.6834,
        "longitude": -70.2666
      },
      {
        "name": "Venado Tuerto",
        "timezone": "America/Argentina/Cordoba",
        "latitude": -33.7496,
        "longitude": -61.97
      },
      {
        "name": "Corrientes",
        "timezone": "America/Argentina/Cordoba",
        "latitude": -27.49,
        "longitude": -58.81
      },
      {
        "name": "Formosa",
        "timezone": "America/Argentina/Cordoba",
        "latitude": -26.1728,
        "longitude": -58.1828
      },
      {
        "name": "Las Lomitas",
        "timezone": "America/Argentina/Cordoba",
        "latitude": -24.6996,
        "longitude": -60.6
      },
      {
        "name": "La Plata",
        "timezone": "America/Argentina/Buenos_Aires",
        "latitude": -34.9096,
        "longitude": -57.96
      },
      {
        "name": "Mar de Ajo",
        "timezone": "America/Argentina/Buenos_Aires",
        "latitude": -36.7162,
        "longitude": -56.6766
      },
      {
        "name": "Cutral Co",
        "timezone": "America/Argentina/Salta",
        "latitude": -38.94,
        "longitude": -69.24
      },
      {
        "name": "Ingeniero Jacobacci",
        "timezone": "America/Argentina/Catamarca",
        "latitude": -41.3,
        "longitude": -69.5833
      },
      {
        "name": "Santiago del Estero",
        "timezone": "America/Argentina/Cordoba",
        "latitude": -27.7833,
        "longitude": -64.2667
      },
      {
        "name": "Uspallata",
        "timezone": "America/Argentina/Mendoza",
        "latitude": -32.5931,
        "longitude": -69.346
      },
      {
        "name": "Tucuman",
        "timezone": "America/Argentina/Tucuman",
        "latitude": -26.816,
        "longitude": -65.2166
      },
      {
        "name": "Comallo",
        "timezone": "America/Argentina/Salta",
        "latitude": -41.0333,
        "longitude": -70.2666
      },
      {
        "name": "El Maiten",
        "timezone": "America/Argentina/Catamarca",
        "latitude": -42.05,
        "longitude": -71.1666
      },
      {
        "name": "Mendoza",
        "timezone": "America/Argentina/Mendoza",
        "latitude": -32.8833,
        "longitude": -68.8166
      },
      {
        "name": "Neuquen",
        "timezone": "America/Argentina/Salta",
        "latitude": -38.95,
        "longitude": -68.06
      },
      {
        "name": "Cordoba",
        "timezone": "America/Argentina/Cordoba",
        "latitude": -31.4,
        "longitude": -64.1823
      },
      {
        "name": "Catamarca",
        "timezone": "America/Argentina/Catamarca",
        "latitude": -28.47,
        "longitude": -65.78
      },
      {
        "name": "Villa Rumipal",
        "timezone": "America/Argentina/Cordoba",
        "latitude": -32.1833,
        "longitude": -64.4833
      },
      {
        "name": "San Luis",
        "timezone": "America/Argentina/San_Luis",
        "latitude": -33.3,
        "longitude": -66.35
      },
      {
        "name": "Rio Tercero",
        "timezone": "America/Argentina/Cordoba",
        "latitude": -32.1796,
        "longitude": -64.12
      },
      {
        "name": "Malargue",
        "timezone": "America/Argentina/Mendoza",
        "latitude": -35.4661,
        "longitude": -69.5833
      },
      {
        "name": "Tinogasta",
        "timezone": "America/Argentina/Catamarca",
        "latitude": -28.0666,
        "longitude": -67.5666
      },
      {
        "name": "Rinconada",
        "timezone": "America/La_Paz",
        "latitude": -22.4329,
        "longitude": -66.1666
      },
      {
        "name": "Abra Pampa",
        "timezone": "America/Argentina/Jujuy",
        "latitude": -22.7167,
        "longitude": -65.7
      },
      {
        "name": "Humahuaca",
        "timezone": "America/Argentina/Jujuy",
        "latitude": -23.2,
        "longitude": -65.3499
      },
      {
        "name": "Libertador General San Martin",
        "timezone": "America/Argentina/Jujuy",
        "latitude": -23.8195,
        "longitude": -64.79
      },
      {
        "name": "San Pedro",
        "timezone": "America/Argentina/Jujuy",
        "latitude": -24.2196,
        "longitude": -64.87
      },
      {
        "name": "Susques",
        "timezone": "America/Argentina/Jujuy",
        "latitude": -23.4167,
        "longitude": -66.4833
      },
      {
        "name": "Choele Choel",
        "timezone": "America/Argentina/Salta",
        "latitude": -39.2666,
        "longitude": -65.6833
      },
      {
        "name": "General Conesa",
        "timezone": "America/Argentina/Salta",
        "latitude": -40.1,
        "longitude": -64.4333
      },
      {
        "name": "San Antonio Oeste",
        "timezone": "America/Argentina/Salta",
        "latitude": -40.7329,
        "longitude": -64.9333
      },
      {
        "name": "Sierra Colorado",
        "timezone": "America/Argentina/Salta",
        "latitude": -40.5829,
        "longitude": -67.8
      },
      {
        "name": "San Carlos de Bariloche",
        "timezone": "America/Argentina/Salta",
        "latitude": -41.15,
        "longitude": -71.3
      },
      {
        "name": "Puerto Madryn",
        "timezone": "America/Argentina/Catamarca",
        "latitude": -42.77,
        "longitude": -65.04
      },
      {
        "name": "Telsen",
        "timezone": "America/Argentina/Catamarca",
        "latitude": -42.3996,
        "longitude": -66.95
      },
      {
        "name": "Sarmiento",
        "timezone": "America/Argentina/Catamarca",
        "latitude": -45.6,
        "longitude": -69.0833
      },
      {
        "name": "Alto Rio Sanguer",
        "timezone": "America/Argentina/Catamarca",
        "latitude": -45.0333,
        "longitude": -70.8333
      },
      {
        "name": "Gastre",
        "timezone": "America/Argentina/Catamarca",
        "latitude": -42.283,
        "longitude": -69.2333
      },
      {
        "name": "Pampa del Infierno",
        "timezone": "America/Argentina/Cordoba",
        "latitude": -26.5166,
        "longitude": -61.1666
      },
      {
        "name": "Charata",
        "timezone": "America/Argentina/Cordoba",
        "latitude": -27.2163,
        "longitude": -61.2
      },
      {
        "name": "Presidencia Roque Saenz Pena",
        "timezone": "America/Argentina/Cordoba",
        "latitude": -26.79,
        "longitude": -60.45
      },
      {
        "name": "Rodeo",
        "timezone": "America/Argentina/San_Juan",
        "latitude": -30.2156,
        "longitude": -69.14
      },
      {
        "name": "Mercedes",
        "timezone": "America/Argentina/San_Luis",
        "latitude": -33.6896,
        "longitude": -65.47
      },
      {
        "name": "Villa Maria",
        "timezone": "America/Argentina/Cordoba",
        "latitude": -32.41,
        "longitude": -63.26
      },
      {
        "name": "Las Heras",
        "timezone": "America/Argentina/Mendoza",
        "latitude": -32.825,
        "longitude": -68.8017
      },
      {
        "name": "Chilecito",
        "timezone": "America/Argentina/La_Rioja",
        "latitude": -29.1655,
        "longitude": -67.5
      },
      {
        "name": "Ingeniero Guillermo N. Juarez",
        "timezone": "America/Asuncion",
        "latitude": -23.9,
        "longitude": -61.85
      },
      {
        "name": "Comandante Fontana",
        "timezone": "America/Argentina/Cordoba",
        "latitude": -25.3333,
        "longitude": -59.6833
      },
      {
        "name": "Belen",
        "timezone": "America/Argentina/Catamarca",
        "latitude": -27.6496,
        "longitude": -67.0333
      },
      {
        "name": "Chumbicha",
        "timezone": "America/Argentina/La_Rioja",
        "latitude": -28.8666,
        "longitude": -66.2333
      },
      {
        "name": "Rio Grande",
        "timezone": "America/Argentina/Ushuaia",
        "latitude": -53.7914,
        "longitude": -67.699
      },
      {
        "name": "Puerto Deseado",
        "timezone": "America/Argentina/Rio_Gallegos",
        "latitude": -47.75,
        "longitude": -65.9
      },
      {
        "name": "Perito Moreno",
        "timezone": "America/Argentina/Rio_Gallegos",
        "latitude": -46.6,
        "longitude": -70.9334
      },
      {
        "name": "Puerto San Julian",
        "timezone": "America/Argentina/Rio_Gallegos",
        "latitude": -49.3,
        "longitude": -67.7167
      },
      {
        "name": "Gobernador Gregores",
        "timezone": "America/Argentina/Rio_Gallegos",
        "latitude": -48.7666,
        "longitude": -70.25
      },
      {
        "name": "San Martin",
        "timezone": "America/Argentina/Mendoza",
        "latitude": -33.07,
        "longitude": -68.49
      },
      {
        "name": "La Paz",
        "timezone": "America/Argentina/Mendoza",
        "latitude": -33.4661,
        "longitude": -67.55
      },
      {
        "name": "Tunuyan",
        "timezone": "America/Argentina/Mendoza",
        "latitude": -33.5662,
        "longitude": -69.0167
      },
      {
        "name": "San Rafael",
        "timezone": "America/Argentina/Mendoza",
        "latitude": -34.6,
        "longitude": -68.3333
      },
      {
        "name": "General Pico",
        "timezone": "America/Argentina/Salta",
        "latitude": -35.6596,
        "longitude": -63.77
      },
      {
        "name": "25 de Mayo",
        "timezone": "America/Argentina/Salta",
        "latitude": -37.8,
        "longitude": -67.6833
      },
      {
        "name": "Victorica",
        "timezone": "America/Argentina/Salta",
        "latitude": -36.2163,
        "longitude": -65.45
      },
      {
        "name": "Juan Jose Castelli",
        "timezone": "America/Argentina/Cordoba",
        "latitude": -25.9495,
        "longitude": -60.6166
      },
      {
        "name": "Victoria",
        "timezone": "America/Argentina/Cordoba",
        "latitude": -32.61,
        "longitude": -60.18
      },
      {
        "name": "Eldorado",
        "timezone": "America/Argentina/Cordoba",
        "latitude": -26.2,
        "longitude": -54.6
      },
      {
        "name": "Trancas",
        "timezone": "America/Argentina/Salta",
        "latitude": -26.2167,
        "longitude": -65.2833
      },
      {
        "name": "Chepes",
        "timezone": "America/Argentina/La_Rioja",
        "latitude": -31.35,
        "longitude": -66.6
      },
      {
        "name": "Chamical",
        "timezone": "America/Argentina/La_Rioja",
        "latitude": -30.3496,
        "longitude": -66.3167
      },
      {
        "name": "San Francisco",
        "timezone": "America/Argentina/Cordoba",
        "latitude": -31.43,
        "longitude": -62.09
      },
      {
        "name": "Concordia",
        "timezone": "America/Argentina/Cordoba",
        "latitude": -31.3896,
        "longitude": -58.03
      },
      {
        "name": "El Calafate",
        "timezone": "America/Argentina/Rio_Gallegos",
        "latitude": -50.3333,
        "longitude": -72.3
      },
      {
        "name": "Chos Malal",
        "timezone": "America/Argentina/Salta",
        "latitude": -37.383,
        "longitude": -70.2666
      },
      {
        "name": "Las Lajas",
        "timezone": "America/Argentina/Salta",
        "latitude": -38.5163,
        "longitude": -70.3666
      },
      {
        "name": "Zapala",
        "timezone": "America/Argentina/Salta",
        "latitude": -38.9,
        "longitude": -70.0667
      },
      {
        "name": "Villa Carlos Paz",
        "timezone": "America/Argentina/Cordoba",
        "latitude": -31.42,
        "longitude": -64.5
      },
      {
        "name": "Bell Ville",
        "timezone": "America/Argentina/Cordoba",
        "latitude": -32.6,
        "longitude": -62.68
      },
      {
        "name": "Rio Cuarto",
        "timezone": "America/Argentina/Cordoba",
        "latitude": -33.13,
        "longitude": -64.35
      },
      {
        "name": "Villa Angela",
        "timezone": "America/Argentina/Cordoba",
        "latitude": -27.5833,
        "longitude": -60.7167
      },
      {
        "name": "Concepcion del Uruguay",
        "timezone": "America/Argentina/Cordoba",
        "latitude": -32.48,
        "longitude": -58.24
      },
      {
        "name": "Gualeguaychu",
        "timezone": "America/Argentina/Cordoba",
        "latitude": -33.02,
        "longitude": -58.52
      },
      {
        "name": "Gualeguay",
        "timezone": "America/Argentina/Cordoba",
        "latitude": -33.15,
        "longitude": -59.34
      },
      {
        "name": "Comodoro Rivadavia",
        "timezone": "America/Argentina/Catamarca",
        "latitude": -45.87,
        "longitude": -67.5
      },
      {
        "name": "Esquel",
        "timezone": "America/Argentina/Catamarca",
        "latitude": -42.9,
        "longitude": -71.3166
      },
      {
        "name": "Anatuya",
        "timezone": "America/Argentina/Cordoba",
        "latitude": -28.4661,
        "longitude": -62.8333
      },
      {
        "name": "Dolores",
        "timezone": "America/Argentina/Buenos_Aires",
        "latitude": -36.33,
        "longitude": -57.69
      },
      {
        "name": "Chascomus",
        "timezone": "America/Argentina/Buenos_Aires",
        "latitude": -35.5662,
        "longitude": -58.0166
      },
      {
        "name": "Chivilcoy",
        "timezone": "America/Argentina/Buenos_Aires",
        "latitude": -34.9,
        "longitude": -60.04
      },
      {
        "name": "Lincoln",
        "timezone": "America/Argentina/Buenos_Aires",
        "latitude": -34.88,
        "longitude": -61.5399
      },
      {
        "name": "Goya",
        "timezone": "America/Argentina/Cordoba",
        "latitude": -29.14,
        "longitude": -59.27
      },
      {
        "name": "Frias",
        "timezone": "America/Argentina/Catamarca",
        "latitude": -28.6496,
        "longitude": -65.15
      },
      {
        "name": "Vera",
        "timezone": "America/Argentina/Cordoba",
        "latitude": -29.4662,
        "longitude": -60.2166
      },
      {
        "name": "Reconquista",
        "timezone": "America/Argentina/Cordoba",
        "latitude": -29.1395,
        "longitude": -59.65
      },
      {
        "name": "Monte Quemado",
        "timezone": "America/Argentina/Cordoba",
        "latitude": -25.7996,
        "longitude": -62.8666
      },
      {
        "name": "Campana",
        "timezone": "America/Argentina/Buenos_Aires",
        "latitude": -34.16,
        "longitude": -58.96
      },
      {
        "name": "Zarate",
        "timezone": "America/Argentina/Buenos_Aires",
        "latitude": -34.0896,
        "longitude": -59.04
      },
      {
        "name": "Lujan",
        "timezone": "America/Argentina/Buenos_Aires",
        "latitude": -34.5796,
        "longitude": -59.11
      },
      {
        "name": "Mercedes",
        "timezone": "America/Argentina/Buenos_Aires",
        "latitude": -34.66,
        "longitude": -59.44
      },
      {
        "name": "San Nicolas",
        "timezone": "America/Argentina/Buenos_Aires",
        "latitude": -33.33,
        "longitude": -60.24
      },
      {
        "name": "Pergamino",
        "timezone": "America/Argentina/Buenos_Aires",
        "latitude": -33.8996,
        "longitude": -60.57
      },
      {
        "name": "Chacabuco",
        "timezone": "America/Argentina/Buenos_Aires",
        "latitude": -34.65,
        "longitude": -60.49
      },
      {
        "name": "Junin",
        "timezone": "America/Argentina/Buenos_Aires",
        "latitude": -34.5846,
        "longitude": -60.9589
      },
      {
        "name": "San Ramon de la Nueva Oran",
        "timezone": "America/Argentina/Salta",
        "latitude": -23.14,
        "longitude": -64.32
      },
      {
        "name": "Tartagal",
        "timezone": "America/Argentina/Salta",
        "latitude": -22.55,
        "longitude": -63.81
      },
      {
        "name": "Joaquin V. Gonzalez",
        "timezone": "America/Argentina/Salta",
        "latitude": -25.0833,
        "longitude": -64.1834
      },
      {
        "name": "General Guemes",
        "timezone": "America/Argentina/Salta",
        "latitude": -24.6666,
        "longitude": -65.05
      },
      {
        "name": "Cerrillos",
        "timezone": "America/Argentina/Salta",
        "latitude": -24.8996,
        "longitude": -65.4833
      },
      {
        "name": "Cafayate",
        "timezone": "America/Argentina/Salta",
        "latitude": -26.0829,
        "longitude": -65.9666
      },
      {
        "name": "San Antonio de los Cobres",
        "timezone": "America/Argentina/Jujuy",
        "latitude": -24.1829,
        "longitude": -66.35
      },
      {
        "name": "Alta Gracia",
        "timezone": "America/Argentina/Cordoba",
        "latitude": -31.66,
        "longitude": -64.43
      },
      {
        "name": "Azul",
        "timezone": "America/Argentina/Buenos_Aires",
        "latitude": -36.7796,
        "longitude": -59.87
      },
      {
        "name": "Lobos",
        "timezone": "America/Argentina/Buenos_Aires",
        "latitude": -35.1849,
        "longitude": -59.0947
      },
      {
        "name": "Veinticinco de Mayo",
        "timezone": "America/Argentina/Buenos_Aires",
        "latitude": -35.43,
        "longitude": -60.18
      },
      {
        "name": "Nueve de Julio",
        "timezone": "America/Argentina/Buenos_Aires",
        "latitude": -35.446,
        "longitude": -60.89
      },
      {
        "name": "Mercedes",
        "timezone": "America/Argentina/Cordoba",
        "latitude": -29.1796,
        "longitude": -58.08
      },
      {
        "name": "Mar del Plata",
        "timezone": "America/Argentina/Buenos_Aires",
        "latitude": -38,
        "longitude": -57.58
      },
      {
        "name": "Balcarce",
        "timezone": "America/Argentina/Buenos_Aires",
        "latitude": -37.8333,
        "longitude": -58.25
      },
      {
        "name": "Juarez",
        "timezone": "America/Argentina/Buenos_Aires",
        "latitude": -37.6655,
        "longitude": -59.8
      },
      {
        "name": "Coronel Suarez",
        "timezone": "America/Argentina/Buenos_Aires",
        "latitude": -37.4666,
        "longitude": -61.9166
      },
      {
        "name": "Tandil",
        "timezone": "America/Argentina/Buenos_Aires",
        "latitude": -37.32,
        "longitude": -59.15
      },
      {
        "name": "Carhue",
        "timezone": "America/Argentina/Buenos_Aires",
        "latitude": -37.1829,
        "longitude": -62.7333
      },
      {
        "name": "Olavarria",
        "timezone": "America/Argentina/Buenos_Aires",
        "latitude": -36.9,
        "longitude": -60.33
      },
      {
        "name": "Rafaela",
        "timezone": "America/Argentina/Cordoba",
        "latitude": -31.25,
        "longitude": -61.5
      },
      {
        "name": "San Justo",
        "timezone": "America/Argentina/Cordoba",
        "latitude": -30.7829,
        "longitude": -60.5833
      },
      {
        "name": "Rosario",
        "timezone": "America/Argentina/Cordoba",
        "latitude": -32.9511,
        "longitude": -60.6663
      },
      {
        "name": "Villa Constitucion",
        "timezone": "America/Argentina/Cordoba",
        "latitude": -33.23,
        "longitude": -60.35
      },
      {
        "name": "Bahia Blanca",
        "timezone": "America/Argentina/Buenos_Aires",
        "latitude": -38.74,
        "longitude": -62.265
      },
      {
        "name": "Punta Alta",
        "timezone": "America/Argentina/Buenos_Aires",
        "latitude": -38.88,
        "longitude": -62.08
      },
      {
        "name": "Tres Arroyos",
        "timezone": "America/Argentina/Buenos_Aires",
        "latitude": -38.37,
        "longitude": -60.2699
      },
      {
        "name": "Necochea",
        "timezone": "America/Argentina/Buenos_Aires",
        "latitude": -38.56,
        "longitude": -58.75
      },
      {
        "name": "Buenos Aires",
        "timezone": "America/Argentina/Buenos_Aires",
        "latitude": -34.6025,
        "longitude": -58.3975
      }
    ]
  },
  {
    "name": "Armenia",
    "timezone": "Asia/Yerevan",
    "code": "AM",
    "latitude": 40,
    "longitude": 45,
    "cities": [
      {
        "name": "Yerevan",
        "timezone": "Asia/Yerevan",
        "latitude": 40.1812,
        "longitude": 44.5136
      },
      {
        "name": "Gyumri",
        "timezone": "Asia/Yerevan",
        "latitude": 40.7894,
        "longitude": 43.8475
      },
      {
        "name": "Gavarr",
        "timezone": "Asia/Yerevan",
        "latitude": 40.3589,
        "longitude": 45.1267
      },
      {
        "name": "Artashat",
        "timezone": "Asia/Yerevan",
        "latitude": 39.9539,
        "longitude": 44.5506
      },
      {
        "name": "Yeghegnadzor",
        "timezone": "Asia/Yerevan",
        "latitude": 39.7611,
        "longitude": 45.3333
      },
      {
        "name": "Armavir",
        "timezone": "Asia/Yerevan",
        "latitude": 40.1545,
        "longitude": 44.0382
      },
      {
        "name": "Ijevan",
        "timezone": "Asia/Yerevan",
        "latitude": 40.8788,
        "longitude": 45.1485
      },
      {
        "name": "Hrazdan",
        "timezone": "Asia/Yerevan",
        "latitude": 40.4941,
        "longitude": 44.7602
      },
      {
        "name": "Vanadzor",
        "timezone": "Asia/Yerevan",
        "latitude": 40.8128,
        "longitude": 44.4883
      },
      {
        "name": "Ashtarak",
        "timezone": "Asia/Yerevan",
        "latitude": 40.3017,
        "longitude": 44.3592
      },
      {
        "name": "Kapan",
        "timezone": "Asia/Yerevan",
        "latitude": 39.2075,
        "longitude": 46.4058
      },
      {
        "name": "Ijevan",
        "timezone": "Asia/Yerevan",
        "latitude": 40.8756,
        "longitude": 45.1492
      }
    ]
  },
  {
    "name": "Aruba",
    "timezone": "America/Aruba",
    "code": "AW",
    "latitude": 12.5,
    "longitude": -69.96666666,
    "cities": [
      {
        "name": "Oranjestad",
        "timezone": "America/Aruba",
        "latitude": 12.5304,
        "longitude": -70.029
      }
    ]
  },
  {
    "name": "Australia",
    "timezone": "Australia/Adelaide",
    "code": "AU",
    "latitude": -27,
    "longitude": 133,
    "cities": [
      {
        "name": "Kingoonya",
        "timezone": "Australia/Adelaide",
        "latitude": -30.8996,
        "longitude": 135.3
      },
      {
        "name": "Port Denison",
        "timezone": "Australia/Perth",
        "latitude": -29.2828,
        "longitude": 114.9166
      },
      {
        "name": "Cairns",
        "timezone": "Australia/Brisbane",
        "latitude": -16.8878,
        "longitude": 145.7633
      },
      {
        "name": "Kwinana",
        "timezone": "Australia/Perth",
        "latitude": -32.2394,
        "longitude": 115.7702
      },
      {
        "name": "Cranbourne",
        "timezone": "Australia/Melbourne",
        "latitude": -38.0996,
        "longitude": 145.2834
      },
      {
        "name": "Port Hedland",
        "timezone": "Australia/Perth",
        "latitude": -20.3104,
        "longitude": 118.606
      },
      {
        "name": "Port Lincoln",
        "timezone": "Australia/Adelaide",
        "latitude": -34.7332,
        "longitude": 135.8666
      },
      {
        "name": "Port Macquarie",
        "timezone": "Australia/Sydney",
        "latitude": -31.445,
        "longitude": 152.9187
      },
      {
        "name": "Port Pirie",
        "timezone": "Australia/Adelaide",
        "latitude": -33.1911,
        "longitude": 137.99
      },
      {
        "name": "Portland",
        "timezone": "Australia/Melbourne",
        "latitude": -38.34,
        "longitude": 141.59
      },
      {
        "name": "Proserpine",
        "timezone": "Australia/Brisbane",
        "latitude": -20.4162,
        "longitude": 148.5835
      },
      {
        "name": "Busselton",
        "timezone": "Australia/Perth",
        "latitude": -33.6564,
        "longitude": 115.3487
      },
      {
        "name": "Caboolture",
        "timezone": "Australia/Brisbane",
        "latitude": -27.083,
        "longitude": 152.95
      },
      {
        "name": "Cooma",
        "timezone": "Australia/Sydney",
        "latitude": -36.2396,
        "longitude": 149.12
      },
      {
        "name": "Streaky Bay",
        "timezone": "Australia/Adelaide",
        "latitude": -32.8119,
        "longitude": 134.2149
      },
      {
        "name": "Sunbury",
        "timezone": "Australia/Melbourne",
        "latitude": -37.5696,
        "longitude": 144.71
      },
      {
        "name": "Sydney",
        "timezone": "Australia/Sydney",
        "latitude": -33.92,
        "longitude": 151.1852
      },
      {
        "name": "Karumba",
        "timezone": "Australia/Brisbane",
        "latitude": -17.4833,
        "longitude": 140.8334
      },
      {
        "name": "Esperance",
        "timezone": "Australia/Perth",
        "latitude": -33.8573,
        "longitude": 121.8889
      },
      {
        "name": "Exmouth",
        "timezone": "Australia/Perth",
        "latitude": -21.9311,
        "longitude": 114.1233
      },
      {
        "name": "Forbes",
        "timezone": "Australia/Sydney",
        "latitude": -33.3896,
        "longitude": 148.02
      },
      {
        "name": "Morawa",
        "timezone": "Australia/Perth",
        "latitude": -29.2163,
        "longitude": 116
      },
      {
        "name": "Moree",
        "timezone": "Australia/Sydney",
        "latitude": -29.4699,
        "longitude": 149.8301
      },
      {
        "name": "Katherine",
        "timezone": "Australia/Darwin",
        "latitude": -14.4666,
        "longitude": 132.2666
      },
      {
        "name": "Katoomba",
        "timezone": "Australia/Sydney",
        "latitude": -33.7069,
        "longitude": 150.32
      },
      {
        "name": "Launceston",
        "timezone": "Australia/Hobart",
        "latitude": -41.4498,
        "longitude": 147.1302
      },
      {
        "name": "Laverton",
        "timezone": "Australia/Perth",
        "latitude": -28.627,
        "longitude": 122.404
      },
      {
        "name": "Leeton",
        "timezone": "Australia/Sydney",
        "latitude": -34.5449,
        "longitude": 146.3973
      },
      {
        "name": "Leonara",
        "timezone": "Australia/Perth",
        "latitude": -28.8815,
        "longitude": 121.328
      },
      {
        "name": "Seymour",
        "timezone": "Australia/Melbourne",
        "latitude": -37.0342,
        "longitude": 145.1273
      },
      {
        "name": "Singleton",
        "timezone": "Australia/Sydney",
        "latitude": -32.5695,
        "longitude": 151.16
      },
      {
        "name": "Newcastle",
        "timezone": "Australia/Sydney",
        "latitude": -32.8453,
        "longitude": 151.815
      },
      {
        "name": "Norseman",
        "timezone": "Australia/Perth",
        "latitude": -32.2,
        "longitude": 121.7666
      },
      {
        "name": "Batemans Bay",
        "timezone": "Australia/Sydney",
        "latitude": -35.6896,
        "longitude": 150.2073
      },
      {
        "name": "Bathurst",
        "timezone": "Australia/Sydney",
        "latitude": -33.4196,
        "longitude": 149.57
      },
      {
        "name": "Griffith",
        "timezone": "Australia/Sydney",
        "latitude": -34.29,
        "longitude": 146.04
      },
      {
        "name": "Whyalla",
        "timezone": "Australia/Adelaide",
        "latitude": -33.025,
        "longitude": 137.5614
      },
      {
        "name": "Wilcannia",
        "timezone": "Australia/Sydney",
        "latitude": -31.5662,
        "longitude": 143.3833
      },
      {
        "name": "Katanning",
        "timezone": "Australia/Perth",
        "latitude": -33.6996,
        "longitude": 117.5501
      },
      {
        "name": "Bongaree",
        "timezone": "Australia/Brisbane",
        "latitude": -27.0787,
        "longitude": 153.1509
      },
      {
        "name": "Bordertown",
        "timezone": "Australia/Melbourne",
        "latitude": -36.3162,
        "longitude": 140.7666
      },
      {
        "name": "Boulia",
        "timezone": "Australia/Brisbane",
        "latitude": -22.8996,
        "longitude": 139.9
      },
      {
        "name": "Bourke",
        "timezone": "Australia/Sydney",
        "latitude": -30.1,
        "longitude": 145.9333
      },
      {
        "name": "Mackay",
        "timezone": "Australia/Brisbane",
        "latitude": -21.1439,
        "longitude": 149.15
      },
      {
        "name": "Southern Cross",
        "timezone": "Australia/Perth",
        "latitude": -31.2161,
        "longitude": 119.3167
      },
      {
        "name": "Ulladulla",
        "timezone": "Australia/Sydney",
        "latitude": -35.3495,
        "longitude": 150.47
      },
      {
        "name": "Victor Harbor",
        "timezone": "Australia/Adelaide",
        "latitude": -35.5596,
        "longitude": 138.6173
      },
      {
        "name": "Andamooka",
        "timezone": "Australia/Adelaide",
        "latitude": -30.431,
        "longitude": 137.1656
      },
      {
        "name": "Hervey Bay",
        "timezone": "Australia/Brisbane",
        "latitude": -25.2887,
        "longitude": 152.8409
      },
      {
        "name": "Gunnedah",
        "timezone": "Australia/Sydney",
        "latitude": -30.987,
        "longitude": 150.2623
      },
      {
        "name": "Gympie",
        "timezone": "Australia/Brisbane",
        "latitude": -26.1886,
        "longitude": 152.6709
      },
      {
        "name": "Halls Creek",
        "timezone": "Australia/Perth",
        "latitude": -18.2667,
        "longitude": 127.7667
      },
      {
        "name": "Hamilton",
        "timezone": "Australia/Melbourne",
        "latitude": -37.7312,
        "longitude": 142.0234
      },
      {
        "name": "Winton",
        "timezone": "Australia/Brisbane",
        "latitude": -22.3996,
        "longitude": 143.0333
      },
      {
        "name": "Mudgee",
        "timezone": "Australia/Sydney",
        "latitude": -32.5896,
        "longitude": 149.5801
      },
      {
        "name": "Ivanhoe",
        "timezone": "Australia/Sydney",
        "latitude": -32.8996,
        "longitude": 144.3
      },
      {
        "name": "Pannawonica",
        "timezone": "Australia/Perth",
        "latitude": -21.6366,
        "longitude": 116.325
      },
      {
        "name": "Dubbo",
        "timezone": "Australia/Sydney",
        "latitude": -32.26,
        "longitude": 148.5973
      },
      {
        "name": "Tom Price",
        "timezone": "Australia/Perth",
        "latitude": -22.6935,
        "longitude": 117.7931
      },
      {
        "name": "Parkes",
        "timezone": "Australia/Sydney",
        "latitude": -33.1296,
        "longitude": 148.17
      },
      {
        "name": "Sale",
        "timezone": "Australia/Melbourne",
        "latitude": -38.1096,
        "longitude": 147.06
      },
      {
        "name": "Bendigo",
        "timezone": "Australia/Melbourne",
        "latitude": -36.76,
        "longitude": 144.28
      },
      {
        "name": "Berri",
        "timezone": "Australia/Adelaide",
        "latitude": -34.2829,
        "longitude": 140.6
      },
      {
        "name": "Adelaide",
        "timezone": "Australia/Adelaide",
        "latitude": -34.935,
        "longitude": 138.6
      },
      {
        "name": "Adelaide River",
        "timezone": "Australia/Darwin",
        "latitude": -13.2495,
        "longitude": 131.1
      },
      {
        "name": "Albany",
        "timezone": "Australia/Perth",
        "latitude": -35.0169,
        "longitude": 117.8916
      },
      {
        "name": "Burketown",
        "timezone": "Australia/Brisbane",
        "latitude": -17.7161,
        "longitude": 139.5666
      },
      {
        "name": "Burnie",
        "timezone": "Australia/Hobart",
        "latitude": -41.0666,
        "longitude": 145.9167
      },
      {
        "name": "Penola",
        "timezone": "Australia/Adelaide",
        "latitude": -37.383,
        "longitude": 140.8167
      },
      {
        "name": "Perth",
        "timezone": "Australia/Perth",
        "latitude": -31.955,
        "longitude": 115.84
      },
      {
        "name": "Peterborough",
        "timezone": "Australia/Adelaide",
        "latitude": -32.9662,
        "longitude": 138.8333
      },
      {
        "name": "Scone",
        "timezone": "Australia/Sydney",
        "latitude": -32.0796,
        "longitude": 150.8501
      },
      {
        "name": "Scottsdale",
        "timezone": "Australia/Hobart",
        "latitude": -41.1495,
        "longitude": 147.5167
      },
      {
        "name": "Narrabri",
        "timezone": "Australia/Sydney",
        "latitude": -30.3319,
        "longitude": 149.7874
      },
      {
        "name": "Narrogin",
        "timezone": "Australia/Perth",
        "latitude": -32.9329,
        "longitude": 117.1666
      },
      {
        "name": "Townsville",
        "timezone": "Australia/Brisbane",
        "latitude": -19.25,
        "longitude": 146.77
      },
      {
        "name": "Traralgon",
        "timezone": "Australia/Melbourne",
        "latitude": -38.1996,
        "longitude": 146.53
      },
      {
        "name": "Central Coast",
        "timezone": "Australia/Sydney",
        "latitude": -33.42,
        "longitude": 151.3
      },
      {
        "name": "Broome",
        "timezone": "Australia/Perth",
        "latitude": -17.9618,
        "longitude": 122.2308
      },
      {
        "name": "Bunbury",
        "timezone": "Australia/Perth",
        "latitude": -33.3443,
        "longitude": 115.6502
      },
      {
        "name": "Wyndham",
        "timezone": "Australia/Perth",
        "latitude": -15.374,
        "longitude": 128.3601
      },
      {
        "name": "Yamba",
        "timezone": "Australia/Sydney",
        "latitude": -29.423,
        "longitude": 153.3533
      },
      {
        "name": "Tumby Bay",
        "timezone": "Australia/Adelaide",
        "latitude": -34.3829,
        "longitude": 136.0833
      },
      {
        "name": "Forster-Tuncurry",
        "timezone": "Australia/Sydney",
        "latitude": -32.1931,
        "longitude": 152.5266
      },
      {
        "name": "Bundaberg",
        "timezone": "Australia/Brisbane",
        "latitude": -24.8791,
        "longitude": 152.3509
      },
      {
        "name": "Yulara",
        "timezone": "Australia/Darwin",
        "latitude": -25.2405,
        "longitude": 130.9889
      },
      {
        "name": "Richmond",
        "timezone": "Australia/Sydney",
        "latitude": -33.5995,
        "longitude": 150.74
      },
      {
        "name": "Richmond",
        "timezone": "Australia/Brisbane",
        "latitude": -20.7163,
        "longitude": 143.1333
      },
      {
        "name": "Rockhampton",
        "timezone": "Australia/Brisbane",
        "latitude": -23.3639,
        "longitude": 150.52
      },
      {
        "name": "Roebourne",
        "timezone": "Australia/Perth",
        "latitude": -20.7829,
        "longitude": 117.1333
      },
      {
        "name": "Roma",
        "timezone": "Australia/Brisbane",
        "latitude": -26.5594,
        "longitude": 148.7907
      },
      {
        "name": "Cloncurry",
        "timezone": "Australia/Brisbane",
        "latitude": -20.7,
        "longitude": 140.5
      },
      {
        "name": "Cobram",
        "timezone": "Australia/Sydney",
        "latitude": -35.9196,
        "longitude": 145.65
      },
      {
        "name": "Coffs Harbour",
        "timezone": "Australia/Sydney",
        "latitude": -30.3071,
        "longitude": 153.1123
      },
      {
        "name": "Colac",
        "timezone": "Australia/Melbourne",
        "latitude": -38.3395,
        "longitude": 143.58
      },
      {
        "name": "Alice Springs",
        "timezone": "Australia/Darwin",
        "latitude": -23.701,
        "longitude": 133.88
      },
      {
        "name": "Ararat",
        "timezone": "Australia/Melbourne",
        "latitude": -37.2795,
        "longitude": 142.91
      },
      {
        "name": "Carnarvon",
        "timezone": "Australia/Perth",
        "latitude": -24.8998,
        "longitude": 113.6501
      },
      {
        "name": "Ceduna",
        "timezone": "Australia/Adelaide",
        "latitude": -32.0991,
        "longitude": 133.6623
      },
      {
        "name": "Charleville",
        "timezone": "Australia/Brisbane",
        "latitude": -26.4,
        "longitude": 146.25
      },
      {
        "name": "Charters Towers",
        "timezone": "Australia/Brisbane",
        "latitude": -20.0809,
        "longitude": 146.2587
      },
      {
        "name": "Kalbarri",
        "timezone": "Australia/Perth",
        "latitude": -27.6662,
        "longitude": 114.1667
      },
      {
        "name": "Kununurra",
        "timezone": "Australia/Perth",
        "latitude": -15.7666,
        "longitude": 128.7333
      },
      {
        "name": "Dalby",
        "timezone": "Australia/Brisbane",
        "latitude": -27.1939,
        "longitude": 151.2657
      },
      {
        "name": "Lithgow",
        "timezone": "Australia/Sydney",
        "latitude": -33.4961,
        "longitude": 150.1528
      },
      {
        "name": "Manjimup",
        "timezone": "Australia/Perth",
        "latitude": -34.2333,
        "longitude": 116.15
      },
      {
        "name": "Maitland",
        "timezone": "Australia/Sydney",
        "latitude": -32.721,
        "longitude": 151.555
      },
      {
        "name": "Mandurah",
        "timezone": "Australia/Perth",
        "latitude": -32.5235,
        "longitude": 115.7471
      },
      {
        "name": "Karratha",
        "timezone": "Australia/Perth",
        "latitude": -20.7304,
        "longitude": 116.87
      },
      {
        "name": "Gawler",
        "timezone": "Australia/Adelaide",
        "latitude": -34.6074,
        "longitude": 138.7264
      },
      {
        "name": "Geelong",
        "timezone": "Australia/Melbourne",
        "latitude": -38.1675,
        "longitude": 144.3956
      },
      {
        "name": "Georgetown",
        "timezone": "Australia/Brisbane",
        "latitude": -18.3,
        "longitude": 143.5333
      },
      {
        "name": "Geraldton",
        "timezone": "Australia/Perth",
        "latitude": -28.7666,
        "longitude": 114.6
      },
      {
        "name": "Maryborough",
        "timezone": "Australia/Melbourne",
        "latitude": -37.0496,
        "longitude": 143.73
      },
      {
        "name": "Maryborough",
        "timezone": "Australia/Brisbane",
        "latitude": -25.5491,
        "longitude": 152.7209
      },
      {
        "name": "McMinns Lagoon",
        "timezone": "Australia/Darwin",
        "latitude": -12.5329,
        "longitude": 131.05
      },
      {
        "name": "Toowoomba",
        "timezone": "Australia/Brisbane",
        "latitude": -27.5645,
        "longitude": 151.9555
      },
      {
        "name": "Onslow",
        "timezone": "Australia/Perth",
        "latitude": -21.6576,
        "longitude": 115.0963
      },
      {
        "name": "Orange",
        "timezone": "Australia/Sydney",
        "latitude": -33.28,
        "longitude": 149.1
      },
      {
        "name": "Stawell",
        "timezone": "Australia/Melbourne",
        "latitude": -37.0596,
        "longitude": 142.76
      },
      {
        "name": "Echuca",
        "timezone": "Australia/Melbourne",
        "latitude": -36.1296,
        "longitude": 144.75
      },
      {
        "name": "Eidsvold",
        "timezone": "Australia/Brisbane",
        "latitude": -25.3662,
        "longitude": 151.1333
      },
      {
        "name": "Emerald",
        "timezone": "Australia/Brisbane",
        "latitude": -23.5122,
        "longitude": 148.1673
      },
      {
        "name": "Tamworth",
        "timezone": "Australia/Sydney",
        "latitude": -31.1026,
        "longitude": 150.9171
      },
      {
        "name": "Taree",
        "timezone": "Australia/Sydney",
        "latitude": -31.8976,
        "longitude": 152.4618
      },
      {
        "name": "Ballarat",
        "timezone": "Australia/Melbourne",
        "latitude": -37.5596,
        "longitude": 143.84
      },
      {
        "name": "Ballina",
        "timezone": "Australia/Sydney",
        "latitude": -28.8614,
        "longitude": 153.568
      },
      {
        "name": "Barcaldine",
        "timezone": "Australia/Brisbane",
        "latitude": -23.5662,
        "longitude": 145.2834
      },
      {
        "name": "Mount Barker",
        "timezone": "Australia/Perth",
        "latitude": -34.6328,
        "longitude": 117.6666
      },
      {
        "name": "Mount Gambier",
        "timezone": "Australia/Adelaide",
        "latitude": -37.8313,
        "longitude": 140.765
      },
      {
        "name": "Mount Isa",
        "timezone": "Australia/Brisbane",
        "latitude": -20.7239,
        "longitude": 139.49
      },
      {
        "name": "Mount Magnet",
        "timezone": "Australia/Perth",
        "latitude": -28.0662,
        "longitude": 117.8167
      },
      {
        "name": "Kempsey",
        "timezone": "Australia/Sydney",
        "latitude": -31.0874,
        "longitude": 152.822
      },
      {
        "name": "Queanbeyan",
        "timezone": "Australia/Sydney",
        "latitude": -35.3546,
        "longitude": 149.2113
      },
      {
        "name": "Queenstown",
        "timezone": "Australia/Hobart",
        "latitude": -42.0829,
        "longitude": 145.55
      },
      {
        "name": "Quilpie",
        "timezone": "Australia/Brisbane",
        "latitude": -26.6166,
        "longitude": 144.25
      },
      {
        "name": "Ravensthorpe",
        "timezone": "Australia/Perth",
        "latitude": -33.5829,
        "longitude": 120.0333
      },
      {
        "name": "Warrnambool",
        "timezone": "Australia/Melbourne",
        "latitude": -38.38,
        "longitude": 142.47
      },
      {
        "name": "Warwick",
        "timezone": "Australia/Brisbane",
        "latitude": -28.2292,
        "longitude": 152.0203
      },
      {
        "name": "Weipa",
        "timezone": "Australia/Brisbane",
        "latitude": -12.6666,
        "longitude": 141.8666
      },
      {
        "name": "Ouyen",
        "timezone": "Australia/Melbourne",
        "latitude": -35.0662,
        "longitude": 142.3167
      },
      {
        "name": "Wollongong",
        "timezone": "Australia/Sydney",
        "latitude": -34.4154,
        "longitude": 150.89
      },
      {
        "name": "Wonthaggi",
        "timezone": "Australia/Melbourne",
        "latitude": -38.6095,
        "longitude": 145.59
      },
      {
        "name": "Kiama",
        "timezone": "Australia/Sydney",
        "latitude": -34.7096,
        "longitude": 150.84
      },
      {
        "name": "Kimba",
        "timezone": "Australia/Adelaide",
        "latitude": -33.1496,
        "longitude": 136.4334
      },
      {
        "name": "Kingaroy",
        "timezone": "Australia/Brisbane",
        "latitude": -26.539,
        "longitude": 151.8406
      },
      {
        "name": "Pine Creek",
        "timezone": "Australia/Darwin",
        "latitude": -13.8162,
        "longitude": 131.8167
      },
      {
        "name": "Hobart",
        "timezone": "Australia/Hobart",
        "latitude": -42.85,
        "longitude": 147.295
      },
      {
        "name": "Darwin",
        "timezone": "Australia/Darwin",
        "latitude": -12.4254,
        "longitude": 130.85
      },
      {
        "name": "Gingin",
        "timezone": "Australia/Perth",
        "latitude": -31.3496,
        "longitude": 115.9
      },
      {
        "name": "Meekatharra",
        "timezone": "Australia/Perth",
        "latitude": -26.6,
        "longitude": 118.4833
      },
      {
        "name": "Melbourne",
        "timezone": "Australia/Melbourne",
        "latitude": -37.82,
        "longitude": 144.975
      },
      {
        "name": "Woomera",
        "timezone": "Australia/Adelaide",
        "latitude": -31.1496,
        "longitude": 136.8
      },
      {
        "name": "Moranbah",
        "timezone": "Australia/Brisbane",
        "latitude": -22.0016,
        "longitude": 148.038
      },
      {
        "name": "Port Augusta",
        "timezone": "Australia/Adelaide",
        "latitude": -32.49,
        "longitude": 137.77
      },
      {
        "name": "Port Douglas",
        "timezone": "Australia/Brisbane",
        "latitude": -16.4846,
        "longitude": 145.4587
      },
      {
        "name": "Gladstone",
        "timezone": "Australia/Brisbane",
        "latitude": -23.8533,
        "longitude": 151.2467
      },
      {
        "name": "Gold Coast",
        "timezone": "Australia/Brisbane",
        "latitude": -28.0815,
        "longitude": 153.4482
      },
      {
        "name": "Horsham",
        "timezone": "Australia/Melbourne",
        "latitude": -36.7096,
        "longitude": 142.19
      },
      {
        "name": "Hughenden",
        "timezone": "Australia/Brisbane",
        "latitude": -20.85,
        "longitude": 144.2
      },
      {
        "name": "Northam",
        "timezone": "Australia/Perth",
        "latitude": -31.6566,
        "longitude": 116.6534
      },
      {
        "name": "Nowra",
        "timezone": "Australia/Sydney",
        "latitude": -34.8828,
        "longitude": 150.6
      },
      {
        "name": "Shepparton",
        "timezone": "Australia/Melbourne",
        "latitude": -36.3746,
        "longitude": 145.3914
      },
      {
        "name": "Yeppoon",
        "timezone": "Australia/Brisbane",
        "latitude": -23.1329,
        "longitude": 150.7567
      },
      {
        "name": "Young",
        "timezone": "Australia/Sydney",
        "latitude": -34.3096,
        "longitude": 148.29
      },
      {
        "name": "Caloundra",
        "timezone": "Australia/Brisbane",
        "latitude": -26.8,
        "longitude": 153.1333
      },
      {
        "name": "Ingham",
        "timezone": "Australia/Brisbane",
        "latitude": -18.6496,
        "longitude": 146.1666
      },
      {
        "name": "Innisfail",
        "timezone": "Australia/Brisbane",
        "latitude": -17.5313,
        "longitude": 146.0387
      },
      {
        "name": "Inverell",
        "timezone": "Australia/Sydney",
        "latitude": -29.7668,
        "longitude": 151.1126
      },
      {
        "name": "Kingston",
        "timezone": "Australia/Hobart",
        "latitude": -42.9911,
        "longitude": 147.3084
      },
      {
        "name": "Kingston South East",
        "timezone": "Australia/Adelaide",
        "latitude": -36.8328,
        "longitude": 139.8501
      },
      {
        "name": "Clare",
        "timezone": "Australia/Adelaide",
        "latitude": -33.8329,
        "longitude": 138.6
      },
      {
        "name": "Bowen",
        "timezone": "Australia/Brisbane",
        "latitude": -20.0013,
        "longitude": 148.2087
      },
      {
        "name": "Melton",
        "timezone": "Australia/Melbourne",
        "latitude": -37.6895,
        "longitude": 144.57
      },
      {
        "name": "Meningie",
        "timezone": "Australia/Adelaide",
        "latitude": -35.6995,
        "longitude": 139.3333
      },
      {
        "name": "Merimbula",
        "timezone": "Australia/Sydney",
        "latitude": -36.8996,
        "longitude": 149.9
      },
      {
        "name": "Merredin",
        "timezone": "Australia/Perth",
        "latitude": -31.4828,
        "longitude": 118.2667
      },
      {
        "name": "Mildura",
        "timezone": "Australia/Melbourne",
        "latitude": -34.185,
        "longitude": 142.1514
      },
      {
        "name": "Thargomindah",
        "timezone": "Australia/Brisbane",
        "latitude": -28,
        "longitude": 143.8167
      },
      {
        "name": "Theodore",
        "timezone": "Australia/Brisbane",
        "latitude": -24.9495,
        "longitude": 150.0833
      },
      {
        "name": "Three Springs",
        "timezone": "Australia/Perth",
        "latitude": -29.5333,
        "longitude": 115.75
      },
      {
        "name": "Oatlands",
        "timezone": "Australia/Hobart",
        "latitude": -42.2996,
        "longitude": 147.3666
      },
      {
        "name": "Wagin",
        "timezone": "Australia/Perth",
        "latitude": -33.2996,
        "longitude": 117.35
      },
      {
        "name": "Armidale",
        "timezone": "Australia/Sydney",
        "latitude": -30.5123,
        "longitude": 151.6675
      },
      {
        "name": "Atherton",
        "timezone": "Australia/Brisbane",
        "latitude": -17.2703,
        "longitude": 145.4694
      },
      {
        "name": "Ayr",
        "timezone": "Australia/Brisbane",
        "latitude": -19.5702,
        "longitude": 147.3995
      },
      {
        "name": "Bairnsdale",
        "timezone": "Australia/Melbourne",
        "latitude": -37.8296,
        "longitude": 147.61
      },
      {
        "name": "Camooweal",
        "timezone": "Australia/Brisbane",
        "latitude": -19.9167,
        "longitude": 138.1167
      },
      {
        "name": "Canberra",
        "timezone": "Australia/Sydney",
        "latitude": -35.283,
        "longitude": 149.129
      },
      {
        "name": "Longreach",
        "timezone": "Australia/Brisbane",
        "latitude": -23.4496,
        "longitude": 144.25
      },
      {
        "name": "Brisbane",
        "timezone": "Australia/Brisbane",
        "latitude": -27.455,
        "longitude": 153.0351
      },
      {
        "name": "Devonport",
        "timezone": "Australia/Hobart",
        "latitude": -41.1927,
        "longitude": 146.3311
      },
      {
        "name": "Wallaroo",
        "timezone": "Australia/Adelaide",
        "latitude": -33.9329,
        "longitude": 137.6333
      },
      {
        "name": "Wangaratta",
        "timezone": "Australia/Melbourne",
        "latitude": -36.36,
        "longitude": 146.3
      },
      {
        "name": "Cowell",
        "timezone": "Australia/Adelaide",
        "latitude": -33.6829,
        "longitude": 136.9166
      },
      {
        "name": "Cowra",
        "timezone": "Australia/Sydney",
        "latitude": -33.8296,
        "longitude": 148.68
      },
      {
        "name": "Goondiwindi",
        "timezone": "Australia/Brisbane",
        "latitude": -28.5548,
        "longitude": 150.3253
      },
      {
        "name": "Goulburn",
        "timezone": "Australia/Sydney",
        "latitude": -34.7496,
        "longitude": 149.7102
      },
      {
        "name": "Grafton",
        "timezone": "Australia/Sydney",
        "latitude": -29.712,
        "longitude": 152.9377
      },
      {
        "name": "Murray Bridge",
        "timezone": "Australia/Adelaide",
        "latitude": -35.1296,
        "longitude": 139.26
      },
      {
        "name": "Muswellbrook",
        "timezone": "Australia/Sydney",
        "latitude": -32.2696,
        "longitude": 150.89
      },
      {
        "name": "Windorah",
        "timezone": "Australia/Brisbane",
        "latitude": -25.4332,
        "longitude": 142.6502
      },
      {
        "name": "Bedourie",
        "timezone": "Australia/Brisbane",
        "latitude": -24.3496,
        "longitude": 139.4666
      },
      {
        "name": "Newman",
        "timezone": "Australia/Perth",
        "latitude": -23.3666,
        "longitude": 119.7333
      },
      {
        "name": "Birdsville",
        "timezone": "Australia/Brisbane",
        "latitude": -25.8996,
        "longitude": 139.3666
      },
      {
        "name": "Kalgoorlie",
        "timezone": "Australia/Perth",
        "latitude": -30.7354,
        "longitude": 121.46
      },
      {
        "name": "Biloela",
        "timezone": "Australia/Brisbane",
        "latitude": -24.3936,
        "longitude": 150.4961
      },
      {
        "name": "Smithton",
        "timezone": "Australia/Hobart",
        "latitude": -40.8329,
        "longitude": 145.1167
      },
      {
        "name": "Bicheno",
        "timezone": "Australia/Hobart",
        "latitude": -41.8784,
        "longitude": 148.2886
      },
      {
        "name": "Deniliquin",
        "timezone": "Australia/Sydney",
        "latitude": -35.5296,
        "longitude": 144.95
      },
      {
        "name": "Broken Hill",
        "timezone": "Australia/Broken_Hill",
        "latitude": -31.95,
        "longitude": 141.4331
      },
      {
        "name": "Swan Hill",
        "timezone": "Australia/Sydney",
        "latitude": -35.3396,
        "longitude": 143.54
      },
      {
        "name": "Albury",
        "timezone": "Australia/Sydney",
        "latitude": -36.06,
        "longitude": 146.92
      },
      {
        "name": "Wagga Wagga",
        "timezone": "Australia/Sydney",
        "latitude": -35.1222,
        "longitude": 147.34
      },
      {
        "name": "Tumut",
        "timezone": "Australia/Sydney",
        "latitude": -35.3096,
        "longitude": 148.22
      },
      {
        "name": "Lismore",
        "timezone": "Australia/Sydney",
        "latitude": -28.8167,
        "longitude": 153.2931
      },
      {
        "name": "Byron Bay",
        "timezone": "Australia/Sydney",
        "latitude": -28.6565,
        "longitude": 153.6129
      },
      {
        "name": "Tweed Heads",
        "timezone": "Australia/Sydney",
        "latitude": -28.1826,
        "longitude": 153.5466
      }
    ]
  },
  {
    "name": "Austria",
    "timezone": "Europe/Vienna",
    "code": "AT",
    "latitude": 47.33333333,
    "longitude": 13.33333333,
    "cities": [
      {
        "name": "Eisenstadt",
        "timezone": "Europe/Vienna",
        "latitude": 47.8333,
        "longitude": 16.5333
      },
      {
        "name": "Innsbruck",
        "timezone": "Europe/Vienna",
        "latitude": 47.2804,
        "longitude": 11.41
      },
      {
        "name": "Bregenz",
        "timezone": "Europe/Vienna",
        "latitude": 47.5167,
        "longitude": 9.7667
      },
      {
        "name": "Salzburg",
        "timezone": "Europe/Vienna",
        "latitude": 47.8105,
        "longitude": 13.04
      },
      {
        "name": "Linz",
        "timezone": "Europe/Vienna",
        "latitude": 48.3192,
        "longitude": 14.2888
      },
      {
        "name": "Wiener Neustadt",
        "timezone": "Europe/Vienna",
        "latitude": 47.816,
        "longitude": 16.25
      },
      {
        "name": "Sankt Polten",
        "timezone": "Europe/Vienna",
        "latitude": 48.2,
        "longitude": 15.6333
      },
      {
        "name": "Graz",
        "timezone": "Europe/Vienna",
        "latitude": 47.0778,
        "longitude": 15.41
      },
      {
        "name": "Klagenfurt",
        "timezone": "Europe/Vienna",
        "latitude": 46.6203,
        "longitude": 14.31
      },
      {
        "name": "Vienna",
        "timezone": "Europe/Vienna",
        "latitude": 48.2,
        "longitude": 16.3666
      }
    ]
  },
  {
    "name": "Azerbaijan",
    "timezone": "Asia/Baku",
    "code": "AZ",
    "latitude": 40.5,
    "longitude": 47.5,
    "cities": [
      {
        "name": "Baku",
        "timezone": "Asia/Baku",
        "latitude": 40.3953,
        "longitude": 49.8622
      },
      {
        "name": "Goranboy",
        "timezone": "Asia/Baku",
        "latitude": 40.6103,
        "longitude": 46.7897
      },
      {
        "name": "Saki",
        "timezone": "Asia/Baku",
        "latitude": 41.1923,
        "longitude": 47.1705
      },
      {
        "name": "Fuzuli",
        "timezone": "Asia/Baku",
        "latitude": 39.6009,
        "longitude": 47.1453
      },
      {
        "name": "Lankaran",
        "timezone": "Asia/Baku",
        "latitude": 38.754,
        "longitude": 48.8511
      },
      {
        "name": "Xocali",
        "timezone": "Asia/Baku",
        "latitude": 39.913,
        "longitude": 46.7903
      },
      {
        "name": "Agdam",
        "timezone": "Asia/Baku",
        "latitude": 39.991,
        "longitude": 46.9274
      },
      {
        "name": "Astara",
        "timezone": "Asia/Baku",
        "latitude": 38.456,
        "longitude": 48.875
      },
      {
        "name": "Cabrayil",
        "timezone": "Asia/Baku",
        "latitude": 39.3992,
        "longitude": 47.0283
      },
      {
        "name": "Beylaqan",
        "timezone": "Asia/Baku",
        "latitude": 39.7756,
        "longitude": 47.6186
      },
      {
        "name": "Masalli",
        "timezone": "Asia/Baku",
        "latitude": 39.0278,
        "longitude": 48.6703
      },
      {
        "name": "Bilasuvar",
        "timezone": "Asia/Baku",
        "latitude": 39.4583,
        "longitude": 48.545
      },
      {
        "name": "Calilabad",
        "timezone": "Asia/Baku",
        "latitude": 39.2096,
        "longitude": 48.4919
      },
      {
        "name": "Davaci",
        "timezone": "Asia/Baku",
        "latitude": 41.2012,
        "longitude": 48.9871
      },
      {
        "name": "Agsu",
        "timezone": "Asia/Baku",
        "latitude": 40.5692,
        "longitude": 48.3965
      },
      {
        "name": "Yevlax",
        "timezone": "Asia/Baku",
        "latitude": 40.6172,
        "longitude": 47.15
      },
      {
        "name": "Mingacevir",
        "timezone": "Asia/Baku",
        "latitude": 40.7639,
        "longitude": 47.0595
      },
      {
        "name": "Ganca",
        "timezone": "Asia/Baku",
        "latitude": 40.685,
        "longitude": 46.35
      },
      {
        "name": "Sumqayt",
        "timezone": "Asia/Baku",
        "latitude": 40.58,
        "longitude": 49.63
      },
      {
        "name": "Xacmaz",
        "timezone": "Asia/Baku",
        "latitude": 41.4643,
        "longitude": 48.8057
      },
      {
        "name": "Imisli",
        "timezone": "Asia/Baku",
        "latitude": 39.8724,
        "longitude": 48.0649
      },
      {
        "name": "Saatli",
        "timezone": "Asia/Baku",
        "latitude": 39.9321,
        "longitude": 48.3689
      },
      {
        "name": "Lacin",
        "timezone": "Asia/Baku",
        "latitude": 39.6434,
        "longitude": 46.5462
      },
      {
        "name": "Sarur",
        "timezone": "Asia/Tehran",
        "latitude": 39.5544,
        "longitude": 44.9826
      },
      {
        "name": "Qubadli",
        "timezone": "Asia/Baku",
        "latitude": 39.3444,
        "longitude": 46.5818
      },
      {
        "name": "Heydarabad",
        "timezone": "Asia/Tehran",
        "latitude": 39.7229,
        "longitude": 44.8485
      },
      {
        "name": "Yardimli",
        "timezone": "Asia/Tehran",
        "latitude": 38.9077,
        "longitude": 48.2405
      },
      {
        "name": "Sahbuz",
        "timezone": "Asia/Yerevan",
        "latitude": 39.4072,
        "longitude": 45.5739
      },
      {
        "name": "Qivraq",
        "timezone": "Asia/Baku",
        "latitude": 39.3994,
        "longitude": 45.1151
      },
      {
        "name": "Ordubad",
        "timezone": "Asia/Baku",
        "latitude": 38.9096,
        "longitude": 46.0227
      },
      {
        "name": "Goycay",
        "timezone": "Asia/Baku",
        "latitude": 40.6534,
        "longitude": 47.7406
      },
      {
        "name": "Agdas",
        "timezone": "Asia/Baku",
        "latitude": 40.647,
        "longitude": 47.4738
      },
      {
        "name": "Naftalan",
        "timezone": "Asia/Baku",
        "latitude": 40.5082,
        "longitude": 46.8203
      },
      {
        "name": "Naxcivan",
        "timezone": "Asia/Baku",
        "latitude": 39.2092,
        "longitude": 45.4122
      },
      {
        "name": "Goygol",
        "timezone": "Asia/Baku",
        "latitude": 40.5858,
        "longitude": 46.3189
      },
      {
        "name": "Haciqabul",
        "timezone": "Asia/Baku",
        "latitude": 40.0387,
        "longitude": 48.9429
      },
      {
        "name": "Kurdamir",
        "timezone": "Asia/Baku",
        "latitude": 40.3453,
        "longitude": 48.1508
      },
      {
        "name": "Qobustan",
        "timezone": "Asia/Baku",
        "latitude": 40.5336,
        "longitude": 48.9282
      },
      {
        "name": "Barda",
        "timezone": "Asia/Baku",
        "latitude": 40.3758,
        "longitude": 47.1262
      },
      {
        "name": "Lerik",
        "timezone": "Asia/Baku",
        "latitude": 38.7739,
        "longitude": 48.415
      },
      {
        "name": "Stepanakert",
        "timezone": "Asia/Baku",
        "latitude": 39.8156,
        "longitude": 46.752
      },
      {
        "name": "Susa",
        "timezone": "Asia/Baku",
        "latitude": 39.7601,
        "longitude": 46.7499
      },
      {
        "name": "Daskasan",
        "timezone": "Asia/Baku",
        "latitude": 40.5239,
        "longitude": 46.0819
      },
      {
        "name": "Salyan",
        "timezone": "Asia/Baku",
        "latitude": 39.5962,
        "longitude": 48.9848
      },
      {
        "name": "Qusar",
        "timezone": "Asia/Baku",
        "latitude": 41.4275,
        "longitude": 48.4302
      },
      {
        "name": "Ali Bayramli",
        "timezone": "Asia/Baku",
        "latitude": 39.9323,
        "longitude": 48.9203
      },
      {
        "name": "Sabirabad",
        "timezone": "Asia/Baku",
        "latitude": 40.0087,
        "longitude": 48.477
      },
      {
        "name": "Quba",
        "timezone": "Asia/Baku",
        "latitude": 41.3611,
        "longitude": 48.5134
      },
      {
        "name": "Gadabay",
        "timezone": "Asia/Baku",
        "latitude": 40.5656,
        "longitude": 45.8161
      },
      {
        "name": "Oguz",
        "timezone": "Asia/Baku",
        "latitude": 41.0708,
        "longitude": 47.4583
      },
      {
        "name": "Balakan",
        "timezone": "Asia/Tbilisi",
        "latitude": 41.7263,
        "longitude": 46.4048
      },
      {
        "name": "Qax",
        "timezone": "Asia/Baku",
        "latitude": 41.4183,
        "longitude": 46.9204
      },
      {
        "name": "Xirdalan",
        "timezone": "Asia/Baku",
        "latitude": 40.4481,
        "longitude": 49.755
      },
      {
        "name": "Neftcala",
        "timezone": "Asia/Baku",
        "latitude": 39.3768,
        "longitude": 49.247
      },
      {
        "name": "Agcabadi",
        "timezone": "Asia/Baku",
        "latitude": 40.0501,
        "longitude": 47.4594
      },
      {
        "name": "Kalbacar",
        "timezone": "Asia/Baku",
        "latitude": 40.1098,
        "longitude": 46.0445
      },
      {
        "name": "Qazax",
        "timezone": "Asia/Yerevan",
        "latitude": 41.0925,
        "longitude": 45.3656
      },
      {
        "name": "Agstafa",
        "timezone": "Asia/Yerevan",
        "latitude": 41.1148,
        "longitude": 45.4468
      },
      {
        "name": "Tovuz",
        "timezone": "Asia/Baku",
        "latitude": 40.9922,
        "longitude": 45.6289
      },
      {
        "name": "Qabala",
        "timezone": "Asia/Baku",
        "latitude": 40.9825,
        "longitude": 47.8491
      },
      {
        "name": "Agdam",
        "timezone": "Asia/Baku",
        "latitude": 40.9053,
        "longitude": 45.5564
      },
      {
        "name": "Ismayilli",
        "timezone": "Asia/Baku",
        "latitude": 40.7848,
        "longitude": 48.1514
      },
      {
        "name": "Samux",
        "timezone": "Asia/Baku",
        "latitude": 40.7649,
        "longitude": 46.4087
      },
      {
        "name": "Samkir",
        "timezone": "Asia/Baku",
        "latitude": 40.8297,
        "longitude": 46.0178
      },
      {
        "name": "Zaqatala",
        "timezone": "Asia/Tbilisi",
        "latitude": 41.6316,
        "longitude": 46.6448
      },
      {
        "name": "Qabala",
        "timezone": "Asia/Baku",
        "latitude": 40.9814,
        "longitude": 47.8458
      },
      {
        "name": "Kapan",
        "timezone": "Asia/Yerevan",
        "latitude": 39.2015,
        "longitude": 46.415
      },
      {
        "name": "Zangilan",
        "timezone": "Asia/Tehran",
        "latitude": 39.0837,
        "longitude": 46.6599
      },
      {
        "name": "Tartar",
        "timezone": "Asia/Baku",
        "latitude": 40.342,
        "longitude": 46.9316
      },
      {
        "name": "Siyazan",
        "timezone": "Asia/Baku",
        "latitude": 41.0781,
        "longitude": 49.1156
      },
      {
        "name": "Zardab",
        "timezone": "Asia/Baku",
        "latitude": 40.2182,
        "longitude": 47.7103
      },
      {
        "name": "Xizi",
        "timezone": "Asia/Baku",
        "latitude": 40.9085,
        "longitude": 49.0748
      },
      {
        "name": "Ucar",
        "timezone": "Asia/Baku",
        "latitude": 40.5121,
        "longitude": 47.6519
      },
      {
        "name": "Xocavand",
        "timezone": "Asia/Baku",
        "latitude": 39.795,
        "longitude": 47.1117
      }
    ]
  },
  {
    "name": "Bahamas",
    "timezone": "America/Nassau",
    "code": "BS",
    "latitude": 24.25,
    "longitude": -76,
    "cities": []
  },
  {
    "name": "Bahrain",
    "timezone": "Asia/Bahrain",
    "code": "BH",
    "latitude": 26,
    "longitude": 50.55,
    "cities": [
      {
        "name": "Manama",
        "timezone": "Asia/Bahrain",
        "latitude": 26.2361,
        "longitude": 50.5831
      }
    ]
  },
  {
    "name": "Bangladesh",
    "timezone": "Asia/Dhaka",
    "code": "BD",
    "latitude": 24,
    "longitude": 90,
    "cities": [
      {
        "name": "Dhaka",
        "timezone": "Asia/Dhaka",
        "latitude": 23.7231,
        "longitude": 90.4086
      },
      {
        "name": "Narayanganj",
        "timezone": "Asia/Dhaka",
        "latitude": 23.6204,
        "longitude": 90.5
      },
      {
        "name": "Khulna",
        "timezone": "Asia/Dhaka",
        "latitude": 22.84,
        "longitude": 89.56
      },
      {
        "name": "Jessore",
        "timezone": "Asia/Dhaka",
        "latitude": 23.1704,
        "longitude": 89.2
      },
      {
        "name": "Sylhet",
        "timezone": "Asia/Dhaka",
        "latitude": 24.9036,
        "longitude": 91.8736
      },
      {
        "name": "Chittagong",
        "timezone": "Asia/Dhaka",
        "latitude": 22.33,
        "longitude": 91.8
      },
      {
        "name": "Barisal",
        "timezone": "Asia/Dhaka",
        "latitude": 22.7004,
        "longitude": 90.375
      },
      {
        "name": "Comilla",
        "timezone": "Asia/Dhaka",
        "latitude": 23.4704,
        "longitude": 91.17
      },
      {
        "name": "Rajshahi",
        "timezone": "Asia/Dhaka",
        "latitude": 24.375,
        "longitude": 88.605
      },
      {
        "name": "Pabna",
        "timezone": "Asia/Dhaka",
        "latitude": 24.0004,
        "longitude": 89.25
      },
      {
        "name": "Saidpur",
        "timezone": "Asia/Dhaka",
        "latitude": 25.8004,
        "longitude": 89
      },
      {
        "name": "Tangail",
        "timezone": "Asia/Dhaka",
        "latitude": 24.25,
        "longitude": 89.92
      },
      {
        "name": "Nawabganj",
        "timezone": "Asia/Dhaka",
        "latitude": 24.5804,
        "longitude": 88.35
      },
      {
        "name": "Jamalpur",
        "timezone": "Asia/Dhaka",
        "latitude": 24.9004,
        "longitude": 89.95
      },
      {
        "name": "Rangpur",
        "timezone": "Asia/Dhaka",
        "latitude": 25.75,
        "longitude": 89.28
      },
      {
        "name": "Mymensingh",
        "timezone": "Asia/Dhaka",
        "latitude": 24.7504,
        "longitude": 90.38
      }
    ]
  },
  {
    "name": "Barbados",
    "timezone": "America/Barbados",
    "code": "BB",
    "latitude": 13.16666666,
    "longitude": -59.53333333,
    "cities": [
      {
        "name": "Bridgetown",
        "timezone": "America/Barbados",
        "latitude": 13.102,
        "longitude": -59.6165
      }
    ]
  },
  {
    "name": "Belarus",
    "timezone": "Europe/Minsk",
    "code": "BY",
    "latitude": 53,
    "longitude": 28,
    "cities": [
      {
        "name": "Minsk",
        "timezone": "Europe/Minsk",
        "latitude": 53.9,
        "longitude": 27.5666
      },